{
"type": "FeatureCollection",
"crs": { "type": "name", "properties": { "name": "urn:ogc:def:crs:OGC:1.3:CRS84" } },
"features": [
{ "type": "Feature", "properties": { "osm_id": "31032271", "code": 2007, "fclass": "library", "name": "Kinderbibliothek" }, "geometry": { "type": "Point", "coordinates": [ 10.0086697, 53.5500374 ] } },
{ "type": "Feature", "properties": { "osm_id": "92747481", "code": 2401, "fclass": "hotel", "name": "Novum Hotel Belmondo Hamburg" }, "geometry": { "type": "Point", "coordinates": [ 10.0149628, 53.548668 ] } },
{ "type": "Feature", "properties": { "osm_id": "92786039", "code": 2302, "fclass": "fast_food", "name": "McDonald's" }, "geometry": { "type": "Point", "coordinates": [ 10.0201481, 53.5526122 ] } },
{ "type": "Feature", "properties": { "osm_id": "254915688", "code": 2004, "fclass": "post_box", "name": null }, "geometry": { "type": "Point", "coordinates": [ 10.0093032, 53.5572297 ] } },
{ "type": "Feature", "properties": { "osm_id": "257690357", "code": 2904, "fclass": "fountain", "name": null }, "geometry": { "type": "Point", "coordinates": [ 10.0209298, 53.5517602 ] } },
{ "type": "Feature", "properties": { "osm_id": "257697845", "code": 2724, "fclass": "memorial", "name": "Friedensstein" }, "geometry": { "type": "Point", "coordinates": [ 10.0163583, 53.5571848 ] } },
{ "type": "Feature", "properties": { "osm_id": "258521618", "code": 2301, "fclass": "restaurant", "name": "Schweinske Hohenfelde" }, "geometry": { "type": "Point", "coordinates": [ 10.0312569, 53.5610317 ] } },
{ "type": "Feature", "properties": { "osm_id": "278220478", "code": 2201, "fclass": "theatre", "name": "Ohnsorg Theater" }, "geometry": { "type": "Point", "coordinates": [ 10.0070813, 53.5545023 ] } },
{ "type": "Feature", "properties": { "osm_id": "287124183", "code": 2602, "fclass": "atm", "name": null }, "geometry": { "type": "Point", "coordinates": [ 10.0230414, 53.5539605 ] } },
{ "type": "Feature", "properties": { "osm_id": "287124185", "code": 2601, "fclass": "bank", "name": "Commerzbank" }, "geometry": { "type": "Point", "coordinates": [ 10.0220868, 53.5536779 ] } },
{ "type": "Feature", "properties": { "osm_id": "287950632", "code": 2101, "fclass": "pharmacy", "name": "Apotheke zum Ritter Sankt Georg" }, "geometry": { "type": "Point", "coordinates": [ 10.0103261, 53.5569316 ] } },
{ "type": "Feature", "properties": { "osm_id": "288012066", "code": 2601, "fclass": "bank", "name": "Hamburger Sparkasse" }, "geometry": { "type": "Point", "coordinates": [ 10.0234664, 53.553176 ] } },
{ "type": "Feature", "properties": { "osm_id": "289301153", "code": 2101, "fclass": "pharmacy", "name": "Epes-Apotheke" }, "geometry": { "type": "Point", "coordinates": [ 10.0114071, 53.5572266 ] } },
{ "type": "Feature", "properties": { "osm_id": "291504251", "code": 2006, "fclass": "telephone", "name": null }, "geometry": { "type": "Point", "coordinates": [ 10.0107617, 53.5567599 ] } },
{ "type": "Feature", "properties": { "osm_id": "291504253", "code": 2006, "fclass": "telephone", "name": null }, "geometry": { "type": "Point", "coordinates": [ 10.0148339, 53.5599228 ] } },
{ "type": "Feature", "properties": { "osm_id": "291504272", "code": 2601, "fclass": "bank", "name": "Hamburger Sparkasse" }, "geometry": { "type": "Point", "coordinates": [ 10.0092133, 53.5555458 ] } },
{ "type": "Feature", "properties": { "osm_id": "292546742", "code": 2601, "fclass": "bank", "name": "Hamburger Sparkasse" }, "geometry": { "type": "Point", "coordinates": [ 10.0331304, 53.5517356 ] } },
{ "type": "Feature", "properties": { "osm_id": "293583308", "code": 2563, "fclass": "car_rental", "name": "Hertz" }, "geometry": { "type": "Point", "coordinates": [ 10.0103185, 53.5551949 ] } },
{ "type": "Feature", "properties": { "osm_id": "293583309", "code": 2006, "fclass": "telephone", "name": null }, "geometry": { "type": "Point", "coordinates": [ 10.008005, 53.554584 ] } },
{ "type": "Feature", "properties": { "osm_id": "293711250", "code": 2006, "fclass": "telephone", "name": null }, "geometry": { "type": "Point", "coordinates": [ 10.0070886, 53.5522457 ] } },
{ "type": "Feature", "properties": { "osm_id": "293711263", "code": 2006, "fclass": "telephone", "name": null }, "geometry": { "type": "Point", "coordinates": [ 10.0084501, 53.5542664 ] } },
{ "type": "Feature", "properties": { "osm_id": "293711264", "code": 2006, "fclass": "telephone", "name": null }, "geometry": { "type": "Point", "coordinates": [ 10.0084781, 53.5552926 ] } },
{ "type": "Feature", "properties": { "osm_id": "293711546", "code": 2031, "fclass": "recycling_glass", "name": null }, "geometry": { "type": "Point", "coordinates": [ 10.0151487, 53.5607556 ] } },
{ "type": "Feature", "properties": { "osm_id": "293712228", "code": 2401, "fclass": "hotel", "name": "Crowne Plaza" }, "geometry": { "type": "Point", "coordinates": [ 10.0195237, 53.5628293 ] } },
{ "type": "Feature", "properties": { "osm_id": "296045836", "code": 2601, "fclass": "bank", "name": "Hamburger Sparkasse" }, "geometry": { "type": "Point", "coordinates": [ 10.0232428, 53.5568672 ] } },
{ "type": "Feature", "properties": { "osm_id": "296087739", "code": 2301, "fclass": "restaurant", "name": "Peter Pane" }, "geometry": { "type": "Point", "coordinates": [ 10.0136866, 53.5595059 ] } },
{ "type": "Feature", "properties": { "osm_id": "300106336", "code": 2405, "fclass": "hostel", "name": "A&O Hamburg Hauptbahnhof" }, "geometry": { "type": "Point", "coordinates": [ 10.0109789, 53.5475769 ] } },
{ "type": "Feature", "properties": { "osm_id": "303376147", "code": 2006, "fclass": "telephone", "name": null }, "geometry": { "type": "Point", "coordinates": [ 10.0203942, 53.5569278 ] } },
{ "type": "Feature", "properties": { "osm_id": "303376148", "code": 2006, "fclass": "telephone", "name": null }, "geometry": { "type": "Point", "coordinates": [ 10.019784, 53.557099 ] } },
{ "type": "Feature", "properties": { "osm_id": "303376149", "code": 2004, "fclass": "post_box", "name": null }, "geometry": { "type": "Point", "coordinates": [ 10.0197761, 53.557106 ] } },
{ "type": "Feature", "properties": { "osm_id": "303376150", "code": 2502, "fclass": "bakery", "name": "Schanzenbäckerei" }, "geometry": { "type": "Point", "coordinates": [ 10.0207228, 53.5576458 ] } },
{ "type": "Feature", "properties": { "osm_id": "306272557", "code": 2301, "fclass": "restaurant", "name": "Betriebssportcasino" }, "geometry": { "type": "Point", "coordinates": [ 10.0308402, 53.5479824 ] } },
{ "type": "Feature", "properties": { "osm_id": "307474006", "code": 2004, "fclass": "post_box", "name": null }, "geometry": { "type": "Point", "coordinates": [ 10.0106119, 53.5524417 ] } },
{ "type": "Feature", "properties": { "osm_id": "307474007", "code": 2006, "fclass": "telephone", "name": null }, "geometry": { "type": "Point", "coordinates": [ 10.010626, 53.5524447 ] } },
{ "type": "Feature", "properties": { "osm_id": "311931369", "code": 2301, "fclass": "restaurant", "name": "Vasco da Gama" }, "geometry": { "type": "Point", "coordinates": [ 10.0116622, 53.5578894 ] } },
{ "type": "Feature", "properties": { "osm_id": "311932220", "code": 2301, "fclass": "restaurant", "name": "Sagners" }, "geometry": { "type": "Point", "coordinates": [ 10.0171116, 53.5621481 ] } },
{ "type": "Feature", "properties": { "osm_id": "311932375", "code": 2301, "fclass": "restaurant", "name": "Casa Romana" }, "geometry": { "type": "Point", "coordinates": [ 10.0088494, 53.5553859 ] } },
{ "type": "Feature", "properties": { "osm_id": "314844026", "code": 2502, "fclass": "bakery", "name": "Bäckerei Sankt Georg" }, "geometry": { "type": "Point", "coordinates": [ 10.0170813, 53.5567404 ] } },
{ "type": "Feature", "properties": { "osm_id": "314853836", "code": 2401, "fclass": "hotel", "name": "Fürst Bismarck" }, "geometry": { "type": "Point", "coordinates": [ 10.0088483, 53.5533759 ] } },
{ "type": "Feature", "properties": { "osm_id": "314854736", "code": 2006, "fclass": "telephone", "name": null }, "geometry": { "type": "Point", "coordinates": [ 10.0116504, 53.554262 ] } },
{ "type": "Feature", "properties": { "osm_id": "314854750", "code": 2568, "fclass": "laundry", "name": "Express Waschcenter" }, "geometry": { "type": "Point", "coordinates": [ 10.0120305, 53.5553852 ] } },
{ "type": "Feature", "properties": { "osm_id": "314877807", "code": 2512, "fclass": "clothes", "name": "KiK" }, "geometry": { "type": "Point", "coordinates": [ 10.0097397, 53.555349 ] } },
{ "type": "Feature", "properties": { "osm_id": "314879477", "code": 2006, "fclass": "telephone", "name": null }, "geometry": { "type": "Point", "coordinates": [ 10.0138668, 53.5563555 ] } },
{ "type": "Feature", "properties": { "osm_id": "314879482", "code": 2301, "fclass": "restaurant", "name": "Iranisches Molana" }, "geometry": { "type": "Point", "coordinates": [ 10.0152141, 53.5558052 ] } },
{ "type": "Feature", "properties": { "osm_id": "314895774", "code": 2083, "fclass": "kindergarten", "name": "Evangelisches Kindertagesheim" }, "geometry": { "type": "Point", "coordinates": [ 10.016458, 53.5574782 ] } },
{ "type": "Feature", "properties": { "osm_id": "316831672", "code": 2004, "fclass": "post_box", "name": null }, "geometry": { "type": "Point", "coordinates": [ 10.0253402, 53.5598008 ] } },
{ "type": "Feature", "properties": { "osm_id": "319681265", "code": 2101, "fclass": "pharmacy", "name": "Apotheke am Hauptbahnhof" }, "geometry": { "type": "Point", "coordinates": [ 10.0104879, 53.5525391 ] } },
{ "type": "Feature", "properties": { "osm_id": "319681422", "code": 2006, "fclass": "telephone", "name": null }, "geometry": { "type": "Point", "coordinates": [ 10.0114827, 53.5531551 ] } },
{ "type": "Feature", "properties": { "osm_id": "319681423", "code": 2201, "fclass": "theatre", "name": "Hansatheater" }, "geometry": { "type": "Point", "coordinates": [ 10.0114661, 53.5534638 ] } },
{ "type": "Feature", "properties": { "osm_id": "319681424", "code": 2501, "fclass": "supermarket", "name": "PENNY" }, "geometry": { "type": "Point", "coordinates": [ 10.0118473, 53.5532311 ] } },
{ "type": "Feature", "properties": { "osm_id": "319681427", "code": 2101, "fclass": "pharmacy", "name": "Engel Apotheke" }, "geometry": { "type": "Point", "coordinates": [ 10.0127581, 53.5535861 ] } },
{ "type": "Feature", "properties": { "osm_id": "319681471", "code": 2006, "fclass": "telephone", "name": null }, "geometry": { "type": "Point", "coordinates": [ 10.0123028, 53.5537062 ] } },
{ "type": "Feature", "properties": { "osm_id": "319682017", "code": 2601, "fclass": "bank", "name": "Ziraat Bank Int. AG" }, "geometry": { "type": "Point", "coordinates": [ 10.0157825, 53.5546552 ] } },
{ "type": "Feature", "properties": { "osm_id": "319682019", "code": 2001, "fclass": "police", "name": "Polizeikommissariat 11" }, "geometry": { "type": "Point", "coordinates": [ 10.0162878, 53.5549174 ] } },
{ "type": "Feature", "properties": { "osm_id": "319682532", "code": 2006, "fclass": "telephone", "name": null }, "geometry": { "type": "Point", "coordinates": [ 10.0162864, 53.5552047 ] } },
{ "type": "Feature", "properties": { "osm_id": "319688646", "code": 2601, "fclass": "bank", "name": "Hamburger Sparkasse" }, "geometry": { "type": "Point", "coordinates": [ 10.0155111, 53.5552415 ] } },
{ "type": "Feature", "properties": { "osm_id": "319688647", "code": 2101, "fclass": "pharmacy", "name": "Alexander Apotheke St. Georg" }, "geometry": { "type": "Point", "coordinates": [ 10.017677, 53.5562525 ] } },
{ "type": "Feature", "properties": { "osm_id": "331755352", "code": 2004, "fclass": "post_box", "name": null }, "geometry": { "type": "Point", "coordinates": [ 10.0181318, 53.5589665 ] } },
{ "type": "Feature", "properties": { "osm_id": "331755707", "code": 2724, "fclass": "memorial", "name": "Ehrenmal der Radiologie" }, "geometry": { "type": "Point", "coordinates": [ 10.0197902, 53.5590823 ] } },
{ "type": "Feature", "properties": { "osm_id": "332206339", "code": 2401, "fclass": "hotel", "name": "Senator" }, "geometry": { "type": "Point", "coordinates": [ 10.0093744, 53.5556725 ] } },
{ "type": "Feature", "properties": { "osm_id": "335635325", "code": 2592, "fclass": "vending_parking", "name": null }, "geometry": { "type": "Point", "coordinates": [ 10.0189996, 53.5580455 ] } },
{ "type": "Feature", "properties": { "osm_id": "338868702", "code": 2006, "fclass": "telephone", "name": null }, "geometry": { "type": "Point", "coordinates": [ 10.0107062, 53.5546662 ] } },
{ "type": "Feature", "properties": { "osm_id": "338911469", "code": 2205, "fclass": "playground", "name": null }, "geometry": { "type": "Point", "coordinates": [ 10.0153828, 53.5588894 ] } },
{ "type": "Feature", "properties": { "osm_id": "338911500", "code": 2741, "fclass": "picnic_site", "name": null }, "geometry": { "type": "Point", "coordinates": [ 10.0156018, 53.5584286 ] } },
{ "type": "Feature", "properties": { "osm_id": "340350046", "code": 2568, "fclass": "laundry", "name": "Die Waschküche" }, "geometry": { "type": "Point", "coordinates": [ 10.0108785, 53.557423 ] } },
{ "type": "Feature", "properties": { "osm_id": "340350153", "code": 2563, "fclass": "car_rental", "name": "SIXT" }, "geometry": { "type": "Point", "coordinates": [ 10.0179572, 53.5494614 ] } },
{ "type": "Feature", "properties": { "osm_id": "340879870", "code": 2513, "fclass": "florist", "name": "Blumenstation Karolan" }, "geometry": { "type": "Point", "coordinates": [ 10.008354, 53.5523329 ] } },
{ "type": "Feature", "properties": { "osm_id": "341769511", "code": 2006, "fclass": "telephone", "name": null }, "geometry": { "type": "Point", "coordinates": [ 10.0076606, 53.5523143 ] } },
{ "type": "Feature", "properties": { "osm_id": "341773586", "code": 2592, "fclass": "vending_parking", "name": "Spadenteich" }, "geometry": { "type": "Point", "coordinates": [ 10.0082145, 53.555646 ] } },
{ "type": "Feature", "properties": { "osm_id": "341788109", "code": 2724, "fclass": "memorial", "name": "Adolph Mannheimer" }, "geometry": { "type": "Point", "coordinates": [ 10.0128167, 53.558697 ] } },
{ "type": "Feature", "properties": { "osm_id": "341788113", "code": 2724, "fclass": "memorial", "name": "Max Wolfsohn" }, "geometry": { "type": "Point", "coordinates": [ 10.0104639, 53.556826 ] } },
{ "type": "Feature", "properties": { "osm_id": "341788118", "code": 2724, "fclass": "memorial", "name": "Margarethe Wolfsohn geb. Cohn" }, "geometry": { "type": "Point", "coordinates": [ 10.0104788, 53.5568446 ] } },
{ "type": "Feature", "properties": { "osm_id": "341788122", "code": 2513, "fclass": "florist", "name": "Hortensia" }, "geometry": { "type": "Point", "coordinates": [ 10.0127463, 53.5582697 ] } },
{ "type": "Feature", "properties": { "osm_id": "341788125", "code": 2724, "fclass": "memorial", "name": "Sophie Goldstein" }, "geometry": { "type": "Point", "coordinates": [ 10.0125603, 53.5582188 ] } },
{ "type": "Feature", "properties": { "osm_id": "341788129", "code": 2303, "fclass": "cafe", "name": "Grüneberg" }, "geometry": { "type": "Point", "coordinates": [ 10.0126711, 53.5582266 ] } },
{ "type": "Feature", "properties": { "osm_id": "341788134", "code": 2301, "fclass": "restaurant", "name": "Casa Di Roma" }, "geometry": { "type": "Point", "coordinates": [ 10.0123623, 53.5579996 ] } },
{ "type": "Feature", "properties": { "osm_id": "341788138", "code": 2724, "fclass": "memorial", "name": "Friedrich Stern" }, "geometry": { "type": "Point", "coordinates": [ 10.0122959, 53.5580597 ] } },
{ "type": "Feature", "properties": { "osm_id": "341788142", "code": 2724, "fclass": "memorial", "name": "Kurt Speyer" }, "geometry": { "type": "Point", "coordinates": [ 10.0141544, 53.5593667 ] } },
{ "type": "Feature", "properties": { "osm_id": "341788146", "code": 2724, "fclass": "memorial", "name": "Alfred Hochfeld" }, "geometry": { "type": "Point", "coordinates": [ 10.0141641, 53.5593681 ] } },
{ "type": "Feature", "properties": { "osm_id": "341788150", "code": 2724, "fclass": "memorial", "name": "Isidor Rothfels" }, "geometry": { "type": "Point", "coordinates": [ 10.0141514, 53.5593635 ] } },
{ "type": "Feature", "properties": { "osm_id": "341790289", "code": 2724, "fclass": "memorial", "name": "Oscar Ludwig Michelsohn" }, "geometry": { "type": "Point", "coordinates": [ 10.0113383, 53.55733 ] } },
{ "type": "Feature", "properties": { "osm_id": "341790294", "code": 2724, "fclass": "memorial", "name": "Hanna Meyberg" }, "geometry": { "type": "Point", "coordinates": [ 10.0113213, 53.5573351 ] } },
{ "type": "Feature", "properties": { "osm_id": "341790301", "code": 2724, "fclass": "memorial", "name": "Erna Fratje Michelsohn geb. Hirsch" }, "geometry": { "type": "Point", "coordinates": [ 10.0113246, 53.5573178 ] } },
{ "type": "Feature", "properties": { "osm_id": "341792058", "code": 2302, "fclass": "fast_food", "name": "Miss Döner" }, "geometry": { "type": "Point", "coordinates": [ 10.0106344, 53.5567719 ] } },
{ "type": "Feature", "properties": { "osm_id": "341792265", "code": 2502, "fclass": "bakery", "name": "Dat Backhus" }, "geometry": { "type": "Point", "coordinates": [ 10.0100004, 53.5567021 ] } },
{ "type": "Feature", "properties": { "osm_id": "348024182", "code": 2724, "fclass": "memorial", "name": "Johanna Pinkus geb. Treitel" }, "geometry": { "type": "Point", "coordinates": [ 10.0140744, 53.5597403 ] } },
{ "type": "Feature", "properties": { "osm_id": "348024183", "code": 2724, "fclass": "memorial", "name": "Günther Pinkus" }, "geometry": { "type": "Point", "coordinates": [ 10.0140689, 53.5597366 ] } },
{ "type": "Feature", "properties": { "osm_id": "348024184", "code": 2724, "fclass": "memorial", "name": "Ruth Körbchen" }, "geometry": { "type": "Point", "coordinates": [ 10.0140821, 53.5597375 ] } },
{ "type": "Feature", "properties": { "osm_id": "353181698", "code": 2082, "fclass": "school", "name": "Abendschule St. Georg" }, "geometry": { "type": "Point", "coordinates": [ 10.0170112, 53.5581414 ] } },
{ "type": "Feature", "properties": { "osm_id": "353819487", "code": 2082, "fclass": "school", "name": "Ganztagsrealschule St. Georg" }, "geometry": { "type": "Point", "coordinates": [ 10.0169191, 53.5577048 ] } },
{ "type": "Feature", "properties": { "osm_id": "364122986", "code": 2303, "fclass": "cafe", "name": "Café-Shop Blueberry" }, "geometry": { "type": "Point", "coordinates": [ 10.0216254, 53.5564901 ] } },
{ "type": "Feature", "properties": { "osm_id": "364123092", "code": 2303, "fclass": "cafe", "name": "Café Berliner Tor" }, "geometry": { "type": "Point", "coordinates": [ 10.0228843, 53.5571934 ] } },
{ "type": "Feature", "properties": { "osm_id": "364123372", "code": 2007, "fclass": "library", "name": "Fachbibliothek Technik Wirtschaft Information 1" }, "geometry": { "type": "Point", "coordinates": [ 10.0220998, 53.5566027 ] } },
{ "type": "Feature", "properties": { "osm_id": "364123447", "code": 2007, "fclass": "library", "name": "Fachbibliothek Technik Wirtschaft Information 2" }, "geometry": { "type": "Point", "coordinates": [ 10.0230931, 53.5572326 ] } },
{ "type": "Feature", "properties": { "osm_id": "364363014", "code": 2082, "fclass": "school", "name": "Höhere Handelsschule St. Georg" }, "geometry": { "type": "Point", "coordinates": [ 10.0168805, 53.557588 ] } },
{ "type": "Feature", "properties": { "osm_id": "368172526", "code": 2006, "fclass": "telephone", "name": null }, "geometry": { "type": "Point", "coordinates": [ 10.0134018, 53.5542915 ] } },
{ "type": "Feature", "properties": { "osm_id": "369768377", "code": 2004, "fclass": "post_box", "name": null }, "geometry": { "type": "Point", "coordinates": [ 10.0324165, 53.555627 ] } },
{ "type": "Feature", "properties": { "osm_id": "370784198", "code": 2502, "fclass": "bakery", "name": "Schanzenbäckerei" }, "geometry": { "type": "Point", "coordinates": [ 10.0229952, 53.5483151 ] } },
{ "type": "Feature", "properties": { "osm_id": "372527974", "code": 2014, "fclass": "arts_centre", "name": "Markthalle Hamburg" }, "geometry": { "type": "Point", "coordinates": [ 10.0067575, 53.5493696 ] } },
{ "type": "Feature", "properties": { "osm_id": "372538274", "code": 2201, "fclass": "theatre", "name": "Centralkomitee" }, "geometry": { "type": "Point", "coordinates": [ 10.0146115, 53.5548361 ] } },
{ "type": "Feature", "properties": { "osm_id": "377977188", "code": 2902, "fclass": "bench", "name": null }, "geometry": { "type": "Point", "coordinates": [ 10.0145104, 53.5625017 ] } },
{ "type": "Feature", "properties": { "osm_id": "414999108", "code": 2101, "fclass": "pharmacy", "name": "Alexander Apotheke City Süd" }, "geometry": { "type": "Point", "coordinates": [ 10.0196301, 53.5523988 ] } },
{ "type": "Feature", "properties": { "osm_id": "432428690", "code": 2566, "fclass": "bicycle_rental", "name": "Lange Reihe / Kirchenallee" }, "geometry": { "type": "Point", "coordinates": [ 10.0081877, 53.5551998 ] } },
{ "type": "Feature", "properties": { "osm_id": "432428691", "code": 2566, "fclass": "bicycle_rental", "name": "Lange Reihe / Lohmühlenpark" }, "geometry": { "type": "Point", "coordinates": [ 10.0148329, 53.55986 ] } },
{ "type": "Feature", "properties": { "osm_id": "432429124", "code": 2301, "fclass": "restaurant", "name": "Da Caio" }, "geometry": { "type": "Point", "coordinates": [ 10.0147238, 53.5609297 ] } },
{ "type": "Feature", "properties": { "osm_id": "432489106", "code": 2502, "fclass": "bakery", "name": "Alstercafé" }, "geometry": { "type": "Point", "coordinates": [ 10.0219757, 53.561613 ] } },
{ "type": "Feature", "properties": { "osm_id": "433297059", "code": 2301, "fclass": "restaurant", "name": "Seehaus Hamburg" }, "geometry": { "type": "Point", "coordinates": [ 10.0125022, 53.5610676 ] } },
{ "type": "Feature", "properties": { "osm_id": "433299709", "code": 2303, "fclass": "cafe", "name": "La Dolce Vita" }, "geometry": { "type": "Point", "coordinates": [ 10.0107642, 53.5602185 ] } },
{ "type": "Feature", "properties": { "osm_id": "436127561", "code": 2302, "fclass": "fast_food", "name": "Jim Block" }, "geometry": { "type": "Point", "coordinates": [ 10.0084662, 53.5546953 ] } },
{ "type": "Feature", "properties": { "osm_id": "438353007", "code": 2566, "fclass": "bicycle_rental", "name": "U Lohmühlenstraße / Steindamm" }, "geometry": { "type": "Point", "coordinates": [ 10.0199124, 53.5572335 ] } },
{ "type": "Feature", "properties": { "osm_id": "439178655", "code": 2566, "fclass": "bicycle_rental", "name": "Steindamm / Stralsunder Straße" }, "geometry": { "type": "Point", "coordinates": [ 10.0133228, 53.5542566 ] } },
{ "type": "Feature", "properties": { "osm_id": "439178662", "code": 2101, "fclass": "pharmacy", "name": "Apotheke am Lohmühlenpark" }, "geometry": { "type": "Point", "coordinates": [ 10.0193331, 53.557054 ] } },
{ "type": "Feature", "properties": { "osm_id": "439178667", "code": 2902, "fclass": "bench", "name": null }, "geometry": { "type": "Point", "coordinates": [ 10.0219106, 53.5593713 ] } },
{ "type": "Feature", "properties": { "osm_id": "441266948", "code": 2303, "fclass": "cafe", "name": "Espresso house" }, "geometry": { "type": "Point", "coordinates": [ 10.0121139, 53.5578806 ] } },
{ "type": "Feature", "properties": { "osm_id": "441266951", "code": 2301, "fclass": "restaurant", "name": "An An" }, "geometry": { "type": "Point", "coordinates": [ 10.00876, 53.555332 ] } },
{ "type": "Feature", "properties": { "osm_id": "441297373", "code": 2566, "fclass": "bicycle_rental", "name": "S+U Berliner Tor / Beim Strohhause" }, "geometry": { "type": "Point", "coordinates": [ 10.0246127, 53.5533379 ] } },
{ "type": "Feature", "properties": { "osm_id": "442138195", "code": 2401, "fclass": "hotel", "name": "Eleazar Novum" }, "geometry": { "type": "Point", "coordinates": [ 10.010396, 53.5536174 ] } },
{ "type": "Feature", "properties": { "osm_id": "442443906", "code": 2301, "fclass": "restaurant", "name": "Leon" }, "geometry": { "type": "Point", "coordinates": [ 10.0085163, 53.5566594 ] } },
{ "type": "Feature", "properties": { "osm_id": "442926852", "code": 2902, "fclass": "bench", "name": null }, "geometry": { "type": "Point", "coordinates": [ 10.0171584, 53.5585482 ] } },
{ "type": "Feature", "properties": { "osm_id": "442926853", "code": 2902, "fclass": "bench", "name": null }, "geometry": { "type": "Point", "coordinates": [ 10.0171215, 53.5588502 ] } },
{ "type": "Feature", "properties": { "osm_id": "442926854", "code": 2902, "fclass": "bench", "name": null }, "geometry": { "type": "Point", "coordinates": [ 10.0161148, 53.559441 ] } },
{ "type": "Feature", "properties": { "osm_id": "442926855", "code": 2902, "fclass": "bench", "name": null }, "geometry": { "type": "Point", "coordinates": [ 10.0164563, 53.5592406 ] } },
{ "type": "Feature", "properties": { "osm_id": "442926856", "code": 2902, "fclass": "bench", "name": null }, "geometry": { "type": "Point", "coordinates": [ 10.016754, 53.5590639 ] } },
{ "type": "Feature", "properties": { "osm_id": "442926857", "code": 2902, "fclass": "bench", "name": null }, "geometry": { "type": "Point", "coordinates": [ 10.0157606, 53.5596286 ] } },
{ "type": "Feature", "properties": { "osm_id": "442926858", "code": 2902, "fclass": "bench", "name": null }, "geometry": { "type": "Point", "coordinates": [ 10.0155584, 53.5597467 ] } },
{ "type": "Feature", "properties": { "osm_id": "442926862", "code": 2902, "fclass": "bench", "name": null }, "geometry": { "type": "Point", "coordinates": [ 10.0147287, 53.5606151 ] } },
{ "type": "Feature", "properties": { "osm_id": "443236856", "code": 2304, "fclass": "pub", "name": "Viking" }, "geometry": { "type": "Point", "coordinates": [ 10.0099694, 53.5535206 ] } },
{ "type": "Feature", "properties": { "osm_id": "443236859", "code": 2304, "fclass": "pub", "name": "KytiVoo" }, "geometry": { "type": "Point", "coordinates": [ 10.0125642, 53.5581398 ] } },
{ "type": "Feature", "properties": { "osm_id": "446760134", "code": 2601, "fclass": "bank", "name": "DHB Bank" }, "geometry": { "type": "Point", "coordinates": [ 10.0124222, 53.5526882 ] } },
{ "type": "Feature", "properties": { "osm_id": "446760137", "code": 2566, "fclass": "bicycle_rental", "name": "Kurt-Schumacher-Allee / Nagelsweg" }, "geometry": { "type": "Point", "coordinates": [ 10.015996, 53.551694 ] } },
{ "type": "Feature", "properties": { "osm_id": "446782723", "code": 2004, "fclass": "post_box", "name": null }, "geometry": { "type": "Point", "coordinates": [ 10.0201128, 53.5501738 ] } },
{ "type": "Feature", "properties": { "osm_id": "448582037", "code": 2566, "fclass": "bicycle_rental", "name": "Zentralbibliothek / Münzstraße" }, "geometry": { "type": "Point", "coordinates": [ 10.0088105, 53.5503806 ] } },
{ "type": "Feature", "properties": { "osm_id": "455879390", "code": 2566, "fclass": "bicycle_rental", "name": "Lübecker Straße / Marienkrankenhaus" }, "geometry": { "type": "Point", "coordinates": [ 10.0285415, 53.5597466 ] } },
{ "type": "Feature", "properties": { "osm_id": "457329684", "code": 2301, "fclass": "restaurant", "name": "Kouros" }, "geometry": { "type": "Point", "coordinates": [ 10.011158, 53.5597584 ] } },
{ "type": "Feature", "properties": { "osm_id": "457890269", "code": 2304, "fclass": "pub", "name": "Paulaner's Miraculum" }, "geometry": { "type": "Point", "coordinates": [ 10.0088008, 53.5535609 ] } },
{ "type": "Feature", "properties": { "osm_id": "457891861", "code": 2304, "fclass": "pub", "name": "M&V Gaststätte" }, "geometry": { "type": "Point", "coordinates": [ 10.009589, 53.5559035 ] } },
{ "type": "Feature", "properties": { "osm_id": "463552897", "code": 2566, "fclass": "bicycle_rental", "name": "S Hammerbrook / Sachsenfeld" }, "geometry": { "type": "Point", "coordinates": [ 10.0242053, 53.5460239 ] } },
{ "type": "Feature", "properties": { "osm_id": "471948115", "code": 2006, "fclass": "telephone", "name": null }, "geometry": { "type": "Point", "coordinates": [ 10.0189271, 53.5524167 ] } },
{ "type": "Feature", "properties": { "osm_id": "471948119", "code": 2031, "fclass": "recycling_glass", "name": null }, "geometry": { "type": "Point", "coordinates": [ 10.0293151, 53.5540436 ] } },
{ "type": "Feature", "properties": { "osm_id": "471948120", "code": 2006, "fclass": "telephone", "name": null }, "geometry": { "type": "Point", "coordinates": [ 10.0245352, 53.5537952 ] } },
{ "type": "Feature", "properties": { "osm_id": "472056037", "code": 2004, "fclass": "post_box", "name": null }, "geometry": { "type": "Point", "coordinates": [ 10.0129, 53.5510723 ] } },
{ "type": "Feature", "properties": { "osm_id": "473383471", "code": 2004, "fclass": "post_box", "name": null }, "geometry": { "type": "Point", "coordinates": [ 10.031504, 53.5593143 ] } },
{ "type": "Feature", "properties": { "osm_id": "474702832", "code": 2602, "fclass": "atm", "name": null }, "geometry": { "type": "Point", "coordinates": [ 10.0208893, 53.5526906 ] } },
{ "type": "Feature", "properties": { "osm_id": "475005177", "code": 2303, "fclass": "cafe", "name": "Kaffeewelt" }, "geometry": { "type": "Point", "coordinates": [ 10.0170236, 53.5533568 ] } },
{ "type": "Feature", "properties": { "osm_id": "476803729", "code": 2004, "fclass": "post_box", "name": null }, "geometry": { "type": "Point", "coordinates": [ 10.0287754, 53.5599354 ] } },
{ "type": "Feature", "properties": { "osm_id": "476803733", "code": 2529, "fclass": "beauty_shop", "name": "Mojgan Schönheit Salon" }, "geometry": { "type": "Point", "coordinates": [ 10.0296555, 53.560296 ] } },
{ "type": "Feature", "properties": { "osm_id": "482087787", "code": 2301, "fclass": "restaurant", "name": "Lunch House" }, "geometry": { "type": "Point", "coordinates": [ 10.0228225, 53.548447 ] } },
{ "type": "Feature", "properties": { "osm_id": "489656852", "code": 2301, "fclass": "restaurant", "name": "Bich Ngoc" }, "geometry": { "type": "Point", "coordinates": [ 10.0083509, 53.5559169 ] } },
{ "type": "Feature", "properties": { "osm_id": "489657283", "code": 2303, "fclass": "cafe", "name": "Cafe Westwind" }, "geometry": { "type": "Point", "coordinates": [ 10.0082293, 53.555966 ] } },
{ "type": "Feature", "properties": { "osm_id": "500618033", "code": 2303, "fclass": "cafe", "name": "Cafe Gnosa" }, "geometry": { "type": "Point", "coordinates": [ 10.0127916, 53.5587826 ] } },
{ "type": "Feature", "properties": { "osm_id": "500644902", "code": 2303, "fclass": "cafe", "name": "Cube Cafe.Bar" }, "geometry": { "type": "Point", "coordinates": [ 10.0127849, 53.5583877 ] } },
{ "type": "Feature", "properties": { "osm_id": "500644908", "code": 2303, "fclass": "cafe", "name": "Bar Sankt Georg" }, "geometry": { "type": "Point", "coordinates": [ 10.0115842, 53.557846 ] } },
{ "type": "Feature", "properties": { "osm_id": "500829252", "code": 2004, "fclass": "post_box", "name": null }, "geometry": { "type": "Point", "coordinates": [ 10.0186515, 53.553578 ] } },
{ "type": "Feature", "properties": { "osm_id": "500829299", "code": 2006, "fclass": "telephone", "name": null }, "geometry": { "type": "Point", "coordinates": [ 10.0101941, 53.5513446 ] } },
{ "type": "Feature", "properties": { "osm_id": "507946635", "code": 2004, "fclass": "post_box", "name": null }, "geometry": { "type": "Point", "coordinates": [ 10.0195752, 53.5553055 ] } },
{ "type": "Feature", "properties": { "osm_id": "519663863", "code": 2401, "fclass": "hotel", "name": "Continental" }, "geometry": { "type": "Point", "coordinates": [ 10.0085421, 53.5546131 ] } },
{ "type": "Feature", "properties": { "osm_id": "536391103", "code": 2302, "fclass": "fast_food", "name": "Gaziantep" }, "geometry": { "type": "Point", "coordinates": [ 10.0103267, 53.5529071 ] } },
{ "type": "Feature", "properties": { "osm_id": "536391105", "code": 2302, "fclass": "fast_food", "name": "Sait" }, "geometry": { "type": "Point", "coordinates": [ 10.0108821, 53.5527786 ] } },
{ "type": "Feature", "properties": { "osm_id": "536391107", "code": 2302, "fclass": "fast_food", "name": "Köz Istanbul" }, "geometry": { "type": "Point", "coordinates": [ 10.0106022, 53.5530302 ] } },
{ "type": "Feature", "properties": { "osm_id": "536391111", "code": 2203, "fclass": "cinema", "name": "Savoy" }, "geometry": { "type": "Point", "coordinates": [ 10.0141718, 53.55412 ] } },
{ "type": "Feature", "properties": { "osm_id": "536391112", "code": 2302, "fclass": "fast_food", "name": "Kebap Salonu Urfa" }, "geometry": { "type": "Point", "coordinates": [ 10.014368, 53.554733 ] } },
{ "type": "Feature", "properties": { "osm_id": "536391118", "code": 2305, "fclass": "bar", "name": null }, "geometry": { "type": "Point", "coordinates": [ 10.0158814, 53.5554045 ] } },
{ "type": "Feature", "properties": { "osm_id": "536391122", "code": 2301, "fclass": "restaurant", "name": "Café Türkis" }, "geometry": { "type": "Point", "coordinates": [ 10.016452, 53.555719 ] } },
{ "type": "Feature", "properties": { "osm_id": "536391125", "code": 2301, "fclass": "restaurant", "name": "Pho Duc" }, "geometry": { "type": "Point", "coordinates": [ 10.0190274, 53.5569135 ] } },
{ "type": "Feature", "properties": { "osm_id": "536391312", "code": 2724, "fclass": "memorial", "name": "Leopold Hüttner" }, "geometry": { "type": "Point", "coordinates": [ 10.0204486, 53.5601303 ] } },
{ "type": "Feature", "properties": { "osm_id": "536391313", "code": 2724, "fclass": "memorial", "name": "Cäcilie Hüttner" }, "geometry": { "type": "Point", "coordinates": [ 10.0204545, 53.560126 ] } },
{ "type": "Feature", "properties": { "osm_id": "536391314", "code": 2724, "fclass": "memorial", "name": "Otto Dietzsch" }, "geometry": { "type": "Point", "coordinates": [ 10.0204434, 53.5601261 ] } },
{ "type": "Feature", "properties": { "osm_id": "536391315", "code": 2724, "fclass": "memorial", "name": "Otto Hermann Bergmann" }, "geometry": { "type": "Point", "coordinates": [ 10.0204397, 53.5601224 ] } },
{ "type": "Feature", "properties": { "osm_id": "536391316", "code": 2724, "fclass": "memorial", "name": "Alexander Blankenstein" }, "geometry": { "type": "Point", "coordinates": [ 10.0204468, 53.5601192 ] } },
{ "type": "Feature", "properties": { "osm_id": "537516635", "code": 2305, "fclass": "bar", "name": "Bellini Bar" }, "geometry": { "type": "Point", "coordinates": [ 10.012043, 53.5575214 ] } },
{ "type": "Feature", "properties": { "osm_id": "538343239", "code": 2907, "fclass": "camera_surveillance", "name": null }, "geometry": { "type": "Point", "coordinates": [ 10.0190276, 53.5579134 ] } },
{ "type": "Feature", "properties": { "osm_id": "538343240", "code": 2701, "fclass": "tourist_info", "name": null }, "geometry": { "type": "Point", "coordinates": [ 10.0190747, 53.5580515 ] } },
{ "type": "Feature", "properties": { "osm_id": "538343414", "code": 2907, "fclass": "camera_surveillance", "name": null }, "geometry": { "type": "Point", "coordinates": [ 10.0154166, 53.5602757 ] } },
{ "type": "Feature", "properties": { "osm_id": "538784769", "code": 2907, "fclass": "camera_surveillance", "name": null }, "geometry": { "type": "Point", "coordinates": [ 10.0080558, 53.5544823 ] } },
{ "type": "Feature", "properties": { "osm_id": "538784770", "code": 2907, "fclass": "camera_surveillance", "name": null }, "geometry": { "type": "Point", "coordinates": [ 10.0078985, 53.554757 ] } },
{ "type": "Feature", "properties": { "osm_id": "541111886", "code": 2032, "fclass": "recycling_paper", "name": null }, "geometry": { "type": "Point", "coordinates": [ 10.0273238, 53.5607226 ] } },
{ "type": "Feature", "properties": { "osm_id": "551491410", "code": 2303, "fclass": "cafe", "name": "Snackmacherei Hamburg" }, "geometry": { "type": "Point", "coordinates": [ 10.0245061, 53.5461297 ] } },
{ "type": "Feature", "properties": { "osm_id": "551491417", "code": 2302, "fclass": "fast_food", "name": "Sultans" }, "geometry": { "type": "Point", "coordinates": [ 10.0246165, 53.5459924 ] } },
{ "type": "Feature", "properties": { "osm_id": "554148627", "code": 2401, "fclass": "hotel", "name": "Terminus" }, "geometry": { "type": "Point", "coordinates": [ 10.0104974, 53.5529913 ] } },
{ "type": "Feature", "properties": { "osm_id": "557853056", "code": 2006, "fclass": "telephone", "name": null }, "geometry": { "type": "Point", "coordinates": [ 10.0077475, 53.5536526 ] } },
{ "type": "Feature", "properties": { "osm_id": "568399156", "code": 2083, "fclass": "kindergarten", "name": "Das Krippenhaus" }, "geometry": { "type": "Point", "coordinates": [ 10.0228408, 53.5630404 ] } },
{ "type": "Feature", "properties": { "osm_id": "576973912", "code": 2501, "fclass": "supermarket", "name": "Bio Company" }, "geometry": { "type": "Point", "coordinates": [ 10.0098788, 53.5565967 ] } },
{ "type": "Feature", "properties": { "osm_id": "576978182", "code": 2907, "fclass": "camera_surveillance", "name": null }, "geometry": { "type": "Point", "coordinates": [ 10.00789, 53.5537058 ] } },
{ "type": "Feature", "properties": { "osm_id": "581234522", "code": 2401, "fclass": "hotel", "name": "Ambassador" }, "geometry": { "type": "Point", "coordinates": [ 10.0261958, 53.5506925 ] } },
{ "type": "Feature", "properties": { "osm_id": "584880329", "code": 2007, "fclass": "library", "name": "Mediothek und Dokumentationsstelle" }, "geometry": { "type": "Point", "coordinates": [ 10.0165556, 53.5517582 ] } },
{ "type": "Feature", "properties": { "osm_id": "584884162", "code": 2007, "fclass": "library", "name": "Musikbibliothek" }, "geometry": { "type": "Point", "coordinates": [ 10.0078955, 53.5495233 ] } },
{ "type": "Feature", "properties": { "osm_id": "585008249", "code": 2007, "fclass": "library", "name": "Gerd Bucerius Bibliothek" }, "geometry": { "type": "Point", "coordinates": [ 10.0089836, 53.5516654 ] } },
{ "type": "Feature", "properties": { "osm_id": "587629284", "code": 2007, "fclass": "library", "name": "Bibliothek des Evangelischen Missionswerks in Deutschland" }, "geometry": { "type": "Point", "coordinates": [ 10.0313751, 53.5509231 ] } },
{ "type": "Feature", "properties": { "osm_id": "587629285", "code": 2007, "fclass": "library", "name": "Archiv Aktiv" }, "geometry": { "type": "Point", "coordinates": [ 10.0314283, 53.5509438 ] } },
{ "type": "Feature", "properties": { "osm_id": "587668104", "code": 2007, "fclass": "library", "name": "Gerichtsbibliothek" }, "geometry": { "type": "Point", "coordinates": [ 10.0220781, 53.557558 ] } },
{ "type": "Feature", "properties": { "osm_id": "588432269", "code": 2007, "fclass": "library", "name": "Bibliothek / Medienzentrum Asklepios Medical School" }, "geometry": { "type": "Point", "coordinates": [ 10.01982, 53.5586311 ] } },
{ "type": "Feature", "properties": { "osm_id": "598263491", "code": 2304, "fclass": "pub", "name": "Max und Consorten" }, "geometry": { "type": "Point", "coordinates": [ 10.008123, 53.5560177 ] } },
{ "type": "Feature", "properties": { "osm_id": "621769334", "code": 2301, "fclass": "restaurant", "name": "Schifferbörse" }, "geometry": { "type": "Point", "coordinates": [ 10.0087824, 53.5537592 ] } },
{ "type": "Feature", "properties": { "osm_id": "635374672", "code": 2006, "fclass": "telephone", "name": null }, "geometry": { "type": "Point", "coordinates": [ 10.0084054, 53.5518583 ] } },
{ "type": "Feature", "properties": { "osm_id": "635374794", "code": 2006, "fclass": "telephone", "name": null }, "geometry": { "type": "Point", "coordinates": [ 10.0311156, 53.5596591 ] } },
{ "type": "Feature", "properties": { "osm_id": "659019628", "code": 2725, "fclass": "artwork", "name": "Kreuzigungsgruppe" }, "geometry": { "type": "Point", "coordinates": [ 10.0077953, 53.5561503 ] } },
{ "type": "Feature", "properties": { "osm_id": "659019629", "code": 2301, "fclass": "restaurant", "name": "Zur alten Flöte" }, "geometry": { "type": "Point", "coordinates": [ 10.0083274, 53.5563314 ] } },
{ "type": "Feature", "properties": { "osm_id": "672844897", "code": 2724, "fclass": "memorial", "name": "Berthold Freundlich" }, "geometry": { "type": "Point", "coordinates": [ 10.0121138, 53.5581145 ] } },
{ "type": "Feature", "properties": { "osm_id": "672844898", "code": 2301, "fclass": "restaurant", "name": "O´Pote" }, "geometry": { "type": "Point", "coordinates": [ 10.0123169, 53.558369 ] } },
{ "type": "Feature", "properties": { "osm_id": "672844899", "code": 2724, "fclass": "memorial", "name": "Kurt Baruch" }, "geometry": { "type": "Point", "coordinates": [ 10.0124277, 53.5582866 ] } },
{ "type": "Feature", "properties": { "osm_id": "673075472", "code": 2724, "fclass": "memorial", "name": "Kurt Becher" }, "geometry": { "type": "Point", "coordinates": [ 10.0096186, 53.5530573 ] } },
{ "type": "Feature", "properties": { "osm_id": "673076286", "code": 2724, "fclass": "memorial", "name": "Harald Meyer" }, "geometry": { "type": "Point", "coordinates": [ 10.0106393, 53.5538609 ] } },
{ "type": "Feature", "properties": { "osm_id": "673076287", "code": 2724, "fclass": "memorial", "name": "Siegfried Meyer" }, "geometry": { "type": "Point", "coordinates": [ 10.0106299, 53.5538586 ] } },
{ "type": "Feature", "properties": { "osm_id": "673078469", "code": 2724, "fclass": "memorial", "name": "Amalie Leser geb. Janower" }, "geometry": { "type": "Point", "coordinates": [ 10.0151479, 53.5556828 ] } },
{ "type": "Feature", "properties": { "osm_id": "673078470", "code": 2724, "fclass": "memorial", "name": "Hans Siegbert Leser" }, "geometry": { "type": "Point", "coordinates": [ 10.015138, 53.5556822 ] } },
{ "type": "Feature", "properties": { "osm_id": "673078471", "code": 2724, "fclass": "memorial", "name": "Siegbert Leser" }, "geometry": { "type": "Point", "coordinates": [ 10.0151423, 53.5556882 ] } },
{ "type": "Feature", "properties": { "osm_id": "673078968", "code": 2724, "fclass": "memorial", "name": "Alfred Gerson" }, "geometry": { "type": "Point", "coordinates": [ 10.0139344, 53.5585087 ] } },
{ "type": "Feature", "properties": { "osm_id": "673532888", "code": 2724, "fclass": "memorial", "name": "Majer Jakob Bernstein" }, "geometry": { "type": "Point", "coordinates": [ 10.0126288, 53.5594053 ] } },
{ "type": "Feature", "properties": { "osm_id": "673532891", "code": 2724, "fclass": "memorial", "name": "Cäsar Meyer" }, "geometry": { "type": "Point", "coordinates": [ 10.0127806, 53.559153 ] } },
{ "type": "Feature", "properties": { "osm_id": "673532892", "code": 2724, "fclass": "memorial", "name": "Ernst Hagemann" }, "geometry": { "type": "Point", "coordinates": [ 10.0084621, 53.5543186 ] } },
{ "type": "Feature", "properties": { "osm_id": "673532893", "code": 2724, "fclass": "memorial", "name": "John Cohn" }, "geometry": { "type": "Point", "coordinates": [ 10.0127509, 53.5595871 ] } },
{ "type": "Feature", "properties": { "osm_id": "673532894", "code": 2724, "fclass": "memorial", "name": "Rosa Loebel geb. Hertz" }, "geometry": { "type": "Point", "coordinates": [ 10.0125361, 53.5591572 ] } },
{ "type": "Feature", "properties": { "osm_id": "673532895", "code": 2724, "fclass": "memorial", "name": "Dr. Emanuel Bruck" }, "geometry": { "type": "Point", "coordinates": [ 10.0094441, 53.5571876 ] } },
{ "type": "Feature", "properties": { "osm_id": "673532897", "code": 2724, "fclass": "memorial", "name": "Julius Kobler" }, "geometry": { "type": "Point", "coordinates": [ 10.0084611, 53.5543219 ] } },
{ "type": "Feature", "properties": { "osm_id": "673542145", "code": 2561, "fclass": "hairdresser", "name": "Ibrahim Kaba - Friseursalon" }, "geometry": { "type": "Point", "coordinates": [ 10.0159214, 53.5542708 ] } },
{ "type": "Feature", "properties": { "osm_id": "673542149", "code": 2512, "fclass": "clothes", "name": "Policke Herrenkleidung" }, "geometry": { "type": "Point", "coordinates": [ 10.0172522, 53.553152 ] } },
{ "type": "Feature", "properties": { "osm_id": "673934671", "code": 2724, "fclass": "memorial", "name": "Alwin Lilienthal" }, "geometry": { "type": "Point", "coordinates": [ 10.0124767, 53.5552195 ] } },
{ "type": "Feature", "properties": { "osm_id": "673934675", "code": 2724, "fclass": "memorial", "name": "Robert Rönnau" }, "geometry": { "type": "Point", "coordinates": [ 10.0130381, 53.55551 ] } },
{ "type": "Feature", "properties": { "osm_id": "673934676", "code": 2724, "fclass": "memorial", "name": "Paul Seyer" }, "geometry": { "type": "Point", "coordinates": [ 10.0104756, 53.5528431 ] } },
{ "type": "Feature", "properties": { "osm_id": "673934677", "code": 2724, "fclass": "memorial", "name": "Julchen Levi" }, "geometry": { "type": "Point", "coordinates": [ 10.0112957, 53.5540304 ] } },
{ "type": "Feature", "properties": { "osm_id": "674164951", "code": 2724, "fclass": "memorial", "name": "E.H. Henry Fiering" }, "geometry": { "type": "Point", "coordinates": [ 10.0083155, 53.5567033 ] } },
{ "type": "Feature", "properties": { "osm_id": "674164968", "code": 2724, "fclass": "memorial", "name": "Sophie Marie Fiering" }, "geometry": { "type": "Point", "coordinates": [ 10.0083161, 53.556703 ] } },
{ "type": "Feature", "properties": { "osm_id": "674214111", "code": 2724, "fclass": "memorial", "name": "Dr. Otto Philippson" }, "geometry": { "type": "Point", "coordinates": [ 10.007289, 53.5549735 ] } },
{ "type": "Feature", "properties": { "osm_id": "674645053", "code": 2724, "fclass": "memorial", "name": "Herbert Krohn" }, "geometry": { "type": "Point", "coordinates": [ 10.0130458, 53.5530282 ] } },
{ "type": "Feature", "properties": { "osm_id": "674647870", "code": 2724, "fclass": "memorial", "name": "Paula Lewinnek geb. Kahn" }, "geometry": { "type": "Point", "coordinates": [ 10.0136009, 53.5538838 ] } },
{ "type": "Feature", "properties": { "osm_id": "674647872", "code": 2724, "fclass": "memorial", "name": "Lucy Schilling geb. Marcus" }, "geometry": { "type": "Point", "coordinates": [ 10.0133616, 53.5533867 ] } },
{ "type": "Feature", "properties": { "osm_id": "674647874", "code": 2724, "fclass": "memorial", "name": "Dr. Julius Lewinnek" }, "geometry": { "type": "Point", "coordinates": [ 10.0136015, 53.5538852 ] } },
{ "type": "Feature", "properties": { "osm_id": "674649442", "code": 2724, "fclass": "memorial", "name": "Walter Kortz" }, "geometry": { "type": "Point", "coordinates": [ 10.015009, 53.5541141 ] } },
{ "type": "Feature", "properties": { "osm_id": "674650206", "code": 2724, "fclass": "memorial", "name": "Fritz Raudies" }, "geometry": { "type": "Point", "coordinates": [ 10.0201843, 53.5547638 ] } },
{ "type": "Feature", "properties": { "osm_id": "674650210", "code": 2012, "fclass": "community_centre", "name": "Kulturladen St. Georg" }, "geometry": { "type": "Point", "coordinates": [ 10.0190267, 53.5548557 ] } },
{ "type": "Feature", "properties": { "osm_id": "674653682", "code": 2724, "fclass": "memorial", "name": "Walter Lüders" }, "geometry": { "type": "Point", "coordinates": [ 10.0160655, 53.5549653 ] } },
{ "type": "Feature", "properties": { "osm_id": "674655427", "code": 2724, "fclass": "memorial", "name": "Heinrich Roth" }, "geometry": { "type": "Point", "coordinates": [ 10.018407, 53.5564656 ] } },
{ "type": "Feature", "properties": { "osm_id": "675104976", "code": 2724, "fclass": "memorial", "name": "Moses (Moritz) Stern" }, "geometry": { "type": "Point", "coordinates": [ 10.0111413, 53.5598197 ] } },
{ "type": "Feature", "properties": { "osm_id": "678411618", "code": 2724, "fclass": "memorial", "name": "Helene Horwitz geb. Ehrmann" }, "geometry": { "type": "Point", "coordinates": [ 10.0351378, 53.5561499 ] } },
{ "type": "Feature", "properties": { "osm_id": "678417620", "code": 2724, "fclass": "memorial", "name": "Elisabeth Kassel" }, "geometry": { "type": "Point", "coordinates": [ 10.032168, 53.5554573 ] } },
{ "type": "Feature", "properties": { "osm_id": "678422957", "code": 2724, "fclass": "memorial", "name": "Margarethe Kassel" }, "geometry": { "type": "Point", "coordinates": [ 10.0321837, 53.5554384 ] } },
{ "type": "Feature", "properties": { "osm_id": "678422959", "code": 2724, "fclass": "memorial", "name": "Walter Kassel" }, "geometry": { "type": "Point", "coordinates": [ 10.0321839, 53.5554385 ] } },
{ "type": "Feature", "properties": { "osm_id": "678422960", "code": 2724, "fclass": "memorial", "name": "Paul Borkowski" }, "geometry": { "type": "Point", "coordinates": [ 10.0321826, 53.555438 ] } },
{ "type": "Feature", "properties": { "osm_id": "678445950", "code": 2724, "fclass": "memorial", "name": "Harry Krebs" }, "geometry": { "type": "Point", "coordinates": [ 10.0312169, 53.5554386 ] } },
{ "type": "Feature", "properties": { "osm_id": "678447855", "code": 2724, "fclass": "memorial", "name": "Charles Hennings" }, "geometry": { "type": "Point", "coordinates": [ 10.0306845, 53.5553237 ] } },
{ "type": "Feature", "properties": { "osm_id": "678448999", "code": 2724, "fclass": "memorial", "name": "Paul Lüben" }, "geometry": { "type": "Point", "coordinates": [ 10.0284, 53.5548386 ] } },
{ "type": "Feature", "properties": { "osm_id": "678450627", "code": 2724, "fclass": "memorial", "name": "Elsa Schmidt" }, "geometry": { "type": "Point", "coordinates": [ 10.0317354, 53.5565107 ] } },
{ "type": "Feature", "properties": { "osm_id": "678542947", "code": 2401, "fclass": "hotel", "name": "City Haus" }, "geometry": { "type": "Point", "coordinates": [ 10.0151501, 53.5533563 ] } },
{ "type": "Feature", "properties": { "osm_id": "688359394", "code": 2724, "fclass": "memorial", "name": "Esther Eulenstein geb. Friedner" }, "geometry": { "type": "Point", "coordinates": [ 10.0169162, 53.5569648 ] } },
{ "type": "Feature", "properties": { "osm_id": "688360505", "code": 2724, "fclass": "memorial", "name": "Carl Theodor Griesel" }, "geometry": { "type": "Point", "coordinates": [ 10.0224773, 53.5600985 ] } },
{ "type": "Feature", "properties": { "osm_id": "688360506", "code": 2724, "fclass": "memorial", "name": "Louise Grün" }, "geometry": { "type": "Point", "coordinates": [ 10.0240933, 53.5602746 ] } },
{ "type": "Feature", "properties": { "osm_id": "688360508", "code": 2724, "fclass": "memorial", "name": "Hedwig Kramper" }, "geometry": { "type": "Point", "coordinates": [ 10.0247947, 53.5603759 ] } },
{ "type": "Feature", "properties": { "osm_id": "689959721", "code": 2724, "fclass": "memorial", "name": "Sybille Körppen geb. Ullmann" }, "geometry": { "type": "Point", "coordinates": [ 10.0094469, 53.5547378 ] } },
{ "type": "Feature", "properties": { "osm_id": "689959724", "code": 2724, "fclass": "memorial", "name": "Wilhelm Rudolf Ochs" }, "geometry": { "type": "Point", "coordinates": [ 10.0094485, 53.5547349 ] } },
{ "type": "Feature", "properties": { "osm_id": "689959727", "code": 2724, "fclass": "memorial", "name": "Bertha Bettelheim geb. Falk" }, "geometry": { "type": "Point", "coordinates": [ 10.009448, 53.5547361 ] } },
{ "type": "Feature", "properties": { "osm_id": "689968699", "code": 2724, "fclass": "memorial", "name": "Fritz Wendt" }, "geometry": { "type": "Point", "coordinates": [ 10.0094813, 53.555404 ] } },
{ "type": "Feature", "properties": { "osm_id": "689975007", "code": 2724, "fclass": "memorial", "name": "Heinz Prager" }, "geometry": { "type": "Point", "coordinates": [ 10.0104345, 53.5561068 ] } },
{ "type": "Feature", "properties": { "osm_id": "689975011", "code": 2724, "fclass": "memorial", "name": "Heinrich Frederig" }, "geometry": { "type": "Point", "coordinates": [ 10.0104543, 53.5561259 ] } },
{ "type": "Feature", "properties": { "osm_id": "697736270", "code": 2303, "fclass": "cafe", "name": "Cafe Prüsse" }, "geometry": { "type": "Point", "coordinates": [ 10.007905, 53.5594496 ] } },
{ "type": "Feature", "properties": { "osm_id": "703091633", "code": 2511, "fclass": "convenience", "name": "Blue Getränkehandel" }, "geometry": { "type": "Point", "coordinates": [ 10.0321999, 53.5570766 ] } },
{ "type": "Feature", "properties": { "osm_id": "704342842", "code": 2512, "fclass": "clothes", "name": "Lindbergh Shop Hamburg" }, "geometry": { "type": "Point", "coordinates": [ 10.0113194, 53.5576211 ] } },
{ "type": "Feature", "properties": { "osm_id": "706314066", "code": 2724, "fclass": "memorial", "name": "Albert Liebenthal" }, "geometry": { "type": "Point", "coordinates": [ 10.0290877, 53.5467396 ] } },
{ "type": "Feature", "properties": { "osm_id": "706314210", "code": 2724, "fclass": "memorial", "name": "Recha Lübke" }, "geometry": { "type": "Point", "coordinates": [ 10.0142601, 53.5491733 ] } },
{ "type": "Feature", "properties": { "osm_id": "706314221", "code": 2724, "fclass": "memorial", "name": "Otto Röser" }, "geometry": { "type": "Point", "coordinates": [ 10.0262369, 53.5493864 ] } },
{ "type": "Feature", "properties": { "osm_id": "706314224", "code": 2724, "fclass": "memorial", "name": "Bella Spanier" }, "geometry": { "type": "Point", "coordinates": [ 10.0142642, 53.549179 ] } },
{ "type": "Feature", "properties": { "osm_id": "706314228", "code": 2724, "fclass": "memorial", "name": "Theodor Kamp" }, "geometry": { "type": "Point", "coordinates": [ 10.0148542, 53.5487653 ] } },
{ "type": "Feature", "properties": { "osm_id": "707708852", "code": 2724, "fclass": "memorial", "name": "Wassiliy Szewezuk" }, "geometry": { "type": "Point", "coordinates": [ 10.0118796, 53.5491049 ] } },
{ "type": "Feature", "properties": { "osm_id": "711514325", "code": 2907, "fclass": "camera_surveillance", "name": null }, "geometry": { "type": "Point", "coordinates": [ 10.0219369, 53.5535065 ] } },
{ "type": "Feature", "properties": { "osm_id": "711514327", "code": 2724, "fclass": "memorial", "name": "Max Lenz" }, "geometry": { "type": "Point", "coordinates": [ 10.0216421, 53.5533455 ] } },
{ "type": "Feature", "properties": { "osm_id": "716780071", "code": 2502, "fclass": "bakery", "name": "Nur Hier" }, "geometry": { "type": "Point", "coordinates": [ 10.0216962, 53.5536373 ] } },
{ "type": "Feature", "properties": { "osm_id": "725581989", "code": 2511, "fclass": "convenience", "name": "Baba International" }, "geometry": { "type": "Point", "coordinates": [ 10.0155159, 53.5528678 ] } },
{ "type": "Feature", "properties": { "osm_id": "761953295", "code": 2302, "fclass": "fast_food", "name": "Yildiz Kebap Haus" }, "geometry": { "type": "Point", "coordinates": [ 10.0105144, 53.55706 ] } },
{ "type": "Feature", "properties": { "osm_id": "761953296", "code": 2602, "fclass": "atm", "name": null }, "geometry": { "type": "Point", "coordinates": [ 10.0105778, 53.55708 ] } },
{ "type": "Feature", "properties": { "osm_id": "761953353", "code": 2561, "fclass": "hairdresser", "name": "Show Cut" }, "geometry": { "type": "Point", "coordinates": [ 10.0116171, 53.5574414 ] } },
{ "type": "Feature", "properties": { "osm_id": "768058493", "code": 2401, "fclass": "hotel", "name": "Hotel Polo" }, "geometry": { "type": "Point", "coordinates": [ 10.0120803, 53.552613 ] } },
{ "type": "Feature", "properties": { "osm_id": "776454510", "code": 2724, "fclass": "memorial", "name": "Hans Prawitt" }, "geometry": { "type": "Point", "coordinates": [ 10.0246325, 53.5628584 ] } },
{ "type": "Feature", "properties": { "osm_id": "776454517", "code": 2724, "fclass": "memorial", "name": "Elfriede Chariner" }, "geometry": { "type": "Point", "coordinates": [ 10.0292902, 53.5613124 ] } },
{ "type": "Feature", "properties": { "osm_id": "776454535", "code": 2724, "fclass": "memorial", "name": "Hubert Mayer" }, "geometry": { "type": "Point", "coordinates": [ 10.0255424, 53.5607668 ] } },
{ "type": "Feature", "properties": { "osm_id": "783189387", "code": 2301, "fclass": "restaurant", "name": "NAGEL - Restaurant Bodega Bierstube" }, "geometry": { "type": "Point", "coordinates": [ 10.0089813, 53.5527761 ] } },
{ "type": "Feature", "properties": { "osm_id": "784485286", "code": 2301, "fclass": "restaurant", "name": "Il Buco" }, "geometry": { "type": "Point", "coordinates": [ 10.0123306, 53.5553855 ] } },
{ "type": "Feature", "properties": { "osm_id": "793896916", "code": 2501, "fclass": "supermarket", "name": "NADI supermarkt" }, "geometry": { "type": "Point", "coordinates": [ 10.0086291, 53.5558124 ] } },
{ "type": "Feature", "properties": { "osm_id": "794053002", "code": 2525, "fclass": "mobile_phone_shop", "name": "iSmart Repair" }, "geometry": { "type": "Point", "coordinates": [ 10.008509, 53.5551398 ] } },
{ "type": "Feature", "properties": { "osm_id": "794053004", "code": 2512, "fclass": "clothes", "name": "Om" }, "geometry": { "type": "Point", "coordinates": [ 10.0090148, 53.5559157 ] } },
{ "type": "Feature", "properties": { "osm_id": "794053005", "code": 2503, "fclass": "kiosk", "name": "Avanti Market" }, "geometry": { "type": "Point", "coordinates": [ 10.0086116, 53.5552616 ] } },
{ "type": "Feature", "properties": { "osm_id": "794053006", "code": 2301, "fclass": "restaurant", "name": "Karatren" }, "geometry": { "type": "Point", "coordinates": [ 10.00842, 53.5550844 ] } },
{ "type": "Feature", "properties": { "osm_id": "794053007", "code": 2303, "fclass": "cafe", "name": "Thanh Nails" }, "geometry": { "type": "Point", "coordinates": [ 10.0088466, 53.5558512 ] } },
{ "type": "Feature", "properties": { "osm_id": "794053007", "code": 2529, "fclass": "beauty_shop", "name": "Thanh Nails" }, "geometry": { "type": "Point", "coordinates": [ 10.0088466, 53.5558512 ] } },
{ "type": "Feature", "properties": { "osm_id": "797563614", "code": 2304, "fclass": "pub", "name": "BAR 14" }, "geometry": { "type": "Point", "coordinates": [ 10.0177918, 53.5520115 ] } },
{ "type": "Feature", "properties": { "osm_id": "797563639", "code": 2401, "fclass": "hotel", "name": "Junges Hotel" }, "geometry": { "type": "Point", "coordinates": [ 10.0178715, 53.5519459 ] } },
{ "type": "Feature", "properties": { "osm_id": "797563657", "code": 2301, "fclass": "restaurant", "name": "Essraum" }, "geometry": { "type": "Point", "coordinates": [ 10.0178853, 53.5520333 ] } },
{ "type": "Feature", "properties": { "osm_id": "799297261", "code": 2724, "fclass": "memorial", "name": "Ludwig Wellhausen" }, "geometry": { "type": "Point", "coordinates": [ 10.0180881, 53.55214 ] } },
{ "type": "Feature", "properties": { "osm_id": "799297273", "code": 2724, "fclass": "memorial", "name": "Wilhelm Bock" }, "geometry": { "type": "Point", "coordinates": [ 10.0180789, 53.5521288 ] } },
{ "type": "Feature", "properties": { "osm_id": "799520791", "code": 2724, "fclass": "memorial", "name": "Wilhelm Dose" }, "geometry": { "type": "Point", "coordinates": [ 10.0293502, 53.5602289 ] } },
{ "type": "Feature", "properties": { "osm_id": "800161022", "code": 2724, "fclass": "memorial", "name": "Hans Ludwig Alfred Dreckmann" }, "geometry": { "type": "Point", "coordinates": [ 10.029694, 53.5606932 ] } },
{ "type": "Feature", "properties": { "osm_id": "800161058", "code": 2724, "fclass": "memorial", "name": "Woldemar Preussner" }, "geometry": { "type": "Point", "coordinates": [ 10.0293546, 53.5602423 ] } },
{ "type": "Feature", "properties": { "osm_id": "800161094", "code": 2724, "fclass": "memorial", "name": "Edith Lola Töpke geb. Simon" }, "geometry": { "type": "Point", "coordinates": [ 10.0303051, 53.5605934 ] } },
{ "type": "Feature", "properties": { "osm_id": "800161143", "code": 2724, "fclass": "memorial", "name": "Rudolph Cohn" }, "geometry": { "type": "Point", "coordinates": [ 10.0322437, 53.5616587 ] } },
{ "type": "Feature", "properties": { "osm_id": "800161157", "code": 2724, "fclass": "memorial", "name": "Robert Behr" }, "geometry": { "type": "Point", "coordinates": [ 10.0320687, 53.5621201 ] } },
{ "type": "Feature", "properties": { "osm_id": "800161223", "code": 2724, "fclass": "memorial", "name": "Rosa Cohn" }, "geometry": { "type": "Point", "coordinates": [ 10.0322406, 53.5616532 ] } },
{ "type": "Feature", "properties": { "osm_id": "800536802", "code": 2724, "fclass": "memorial", "name": "Balthasar Brand" }, "geometry": { "type": "Point", "coordinates": [ 10.0229237, 53.5481148 ] } },
{ "type": "Feature", "properties": { "osm_id": "808281937", "code": 2724, "fclass": "memorial", "name": "Hertha Sobietzki geb. Kozy" }, "geometry": { "type": "Point", "coordinates": [ 10.0072799, 53.5564298 ] } },
{ "type": "Feature", "properties": { "osm_id": "812872250", "code": 2724, "fclass": "memorial", "name": "Gertrud Mendel geb. Jacob" }, "geometry": { "type": "Point", "coordinates": [ 10.0125515, 53.5548936 ] } },
{ "type": "Feature", "properties": { "osm_id": "812872257", "code": 2724, "fclass": "memorial", "name": "Manfred Martin Mendel" }, "geometry": { "type": "Point", "coordinates": [ 10.0125497, 53.5548949 ] } },
{ "type": "Feature", "properties": { "osm_id": "812872262", "code": 2724, "fclass": "memorial", "name": "Wilhelm Nebelung" }, "geometry": { "type": "Point", "coordinates": [ 10.0114138, 53.5549167 ] } },
{ "type": "Feature", "properties": { "osm_id": "812872275", "code": 2724, "fclass": "memorial", "name": "August Haucke" }, "geometry": { "type": "Point", "coordinates": [ 10.0126514, 53.5548121 ] } },
{ "type": "Feature", "properties": { "osm_id": "818613225", "code": 2593, "fclass": "vending_any", "name": null }, "geometry": { "type": "Point", "coordinates": [ 10.0108849, 53.5559305 ] } },
{ "type": "Feature", "properties": { "osm_id": "820107830", "code": 2724, "fclass": "memorial", "name": "Claus Harder" }, "geometry": { "type": "Point", "coordinates": [ 10.0097867, 53.5557188 ] } },
{ "type": "Feature", "properties": { "osm_id": "820107831", "code": 2724, "fclass": "memorial", "name": "Heinz Prager" }, "geometry": { "type": "Point", "coordinates": [ 10.0086763, 53.5563784 ] } },
{ "type": "Feature", "properties": { "osm_id": "826747338", "code": 2724, "fclass": "memorial", "name": "Friedrich Bohn" }, "geometry": { "type": "Point", "coordinates": [ 10.0169094, 53.5564975 ] } },
{ "type": "Feature", "properties": { "osm_id": "826747351", "code": 2724, "fclass": "memorial", "name": "Dr. Franz Oppens" }, "geometry": { "type": "Point", "coordinates": [ 10.0140362, 53.5608555 ] } },
{ "type": "Feature", "properties": { "osm_id": "826747370", "code": 2724, "fclass": "memorial", "name": "Wilhelm Kölpien" }, "geometry": { "type": "Point", "coordinates": [ 10.0209532, 53.554295 ] } },
{ "type": "Feature", "properties": { "osm_id": "826747403", "code": 2724, "fclass": "memorial", "name": "Clara Bacher geb. Haurwitz" }, "geometry": { "type": "Point", "coordinates": [ 10.0248309, 53.5554064 ] } },
{ "type": "Feature", "properties": { "osm_id": "826747408", "code": 2724, "fclass": "memorial", "name": "Dr. Walter Bacher" }, "geometry": { "type": "Point", "coordinates": [ 10.0248245, 53.5554044 ] } },
{ "type": "Feature", "properties": { "osm_id": "828129182", "code": 2724, "fclass": "memorial", "name": "Dr. Franz Oppens" }, "geometry": { "type": "Point", "coordinates": [ 10.0211915, 53.5572973 ] } },
{ "type": "Feature", "properties": { "osm_id": "829340265", "code": 2724, "fclass": "memorial", "name": "Clara Ohnstein geb. Brasch" }, "geometry": { "type": "Point", "coordinates": [ 10.0300705, 53.5542149 ] } },
{ "type": "Feature", "properties": { "osm_id": "829340276", "code": 2724, "fclass": "memorial", "name": "Flora Buttermann geb. Seelig" }, "geometry": { "type": "Point", "coordinates": [ 10.0338776, 53.5536285 ] } },
{ "type": "Feature", "properties": { "osm_id": "829340287", "code": 2724, "fclass": "memorial", "name": "Leon Buttermann" }, "geometry": { "type": "Point", "coordinates": [ 10.0338725, 53.5536332 ] } },
{ "type": "Feature", "properties": { "osm_id": "829340301", "code": 2724, "fclass": "memorial", "name": "Heinrich Hellmund" }, "geometry": { "type": "Point", "coordinates": [ 10.0340212, 53.5544857 ] } },
{ "type": "Feature", "properties": { "osm_id": "840243454", "code": 2724, "fclass": "memorial", "name": "Hans von Halle" }, "geometry": { "type": "Point", "coordinates": [ 10.0325461, 53.5488112 ] } },
{ "type": "Feature", "properties": { "osm_id": "843572765", "code": 2724, "fclass": "memorial", "name": "Walter Steinbeck" }, "geometry": { "type": "Point", "coordinates": [ 10.0230092, 53.5475807 ] } },
{ "type": "Feature", "properties": { "osm_id": "850696520", "code": 2401, "fclass": "hotel", "name": "Centro Hotel City Gate" }, "geometry": { "type": "Point", "coordinates": [ 10.0148894, 53.5550059 ] } },
{ "type": "Feature", "properties": { "osm_id": "874188549", "code": 2302, "fclass": "fast_food", "name": "Herat Bäckerei" }, "geometry": { "type": "Point", "coordinates": [ 10.0180803, 53.5543035 ] } },
{ "type": "Feature", "properties": { "osm_id": "874188549", "code": 2502, "fclass": "bakery", "name": "Herat Bäckerei" }, "geometry": { "type": "Point", "coordinates": [ 10.0180803, 53.5543035 ] } },
{ "type": "Feature", "properties": { "osm_id": "877631960", "code": 2724, "fclass": "memorial", "name": "Anton Wohinz" }, "geometry": { "type": "Point", "coordinates": [ 10.0193272, 53.5576429 ] } },
{ "type": "Feature", "properties": { "osm_id": "883435251", "code": 2724, "fclass": "memorial", "name": "Herbert Schuster" }, "geometry": { "type": "Point", "coordinates": [ 10.0304706, 53.5542483 ] } },
{ "type": "Feature", "properties": { "osm_id": "883435258", "code": 2724, "fclass": "memorial", "name": "Hermann Müller" }, "geometry": { "type": "Point", "coordinates": [ 10.03492, 53.5577869 ] } },
{ "type": "Feature", "properties": { "osm_id": "883435260", "code": 2724, "fclass": "memorial", "name": "Siegfried Schuster" }, "geometry": { "type": "Point", "coordinates": [ 10.0304798, 53.5542503 ] } },
{ "type": "Feature", "properties": { "osm_id": "883435265", "code": 2724, "fclass": "memorial", "name": "Hertha Schuster geb. Stern" }, "geometry": { "type": "Point", "coordinates": [ 10.030475, 53.5542492 ] } },
{ "type": "Feature", "properties": { "osm_id": "883435269", "code": 2724, "fclass": "memorial", "name": "Abram Widawski" }, "geometry": { "type": "Point", "coordinates": [ 10.0342976, 53.5573667 ] } },
{ "type": "Feature", "properties": { "osm_id": "883435272", "code": 2724, "fclass": "memorial", "name": "Max Angres" }, "geometry": { "type": "Point", "coordinates": [ 10.0304779, 53.5542526 ] } },
{ "type": "Feature", "properties": { "osm_id": "883435273", "code": 2724, "fclass": "memorial", "name": "Mathilde Dyhrenfurth geb. Schickler" }, "geometry": { "type": "Point", "coordinates": [ 10.0304726, 53.554254 ] } },
{ "type": "Feature", "properties": { "osm_id": "883435274", "code": 2724, "fclass": "memorial", "name": "David Glücksohn" }, "geometry": { "type": "Point", "coordinates": [ 10.0304685, 53.5542504 ] } },
{ "type": "Feature", "properties": { "osm_id": "883435275", "code": 2724, "fclass": "memorial", "name": "Isaac Süsskind" }, "geometry": { "type": "Point", "coordinates": [ 10.0286112, 53.5548788 ] } },
{ "type": "Feature", "properties": { "osm_id": "883435280", "code": 2724, "fclass": "memorial", "name": "Rosa Angres geb. Schickler" }, "geometry": { "type": "Point", "coordinates": [ 10.0304764, 53.5542549 ] } },
{ "type": "Feature", "properties": { "osm_id": "883435293", "code": 2724, "fclass": "memorial", "name": "Paul Kroll" }, "geometry": { "type": "Point", "coordinates": [ 10.0136311, 53.5490305 ] } },
{ "type": "Feature", "properties": { "osm_id": "883435301", "code": 2724, "fclass": "memorial", "name": "Hulda Süsskind geb. Schlachcic" }, "geometry": { "type": "Point", "coordinates": [ 10.0286072, 53.5548777 ] } },
{ "type": "Feature", "properties": { "osm_id": "914290152", "code": 2514, "fclass": "chemist", "name": "Budnikowsky" }, "geometry": { "type": "Point", "coordinates": [ 10.0140023, 53.5591339 ] } },
{ "type": "Feature", "properties": { "osm_id": "950740201", "code": 2724, "fclass": "memorial", "name": "Arno Bleich" }, "geometry": { "type": "Point", "coordinates": [ 10.0325259, 53.5618935 ] } },
{ "type": "Feature", "properties": { "osm_id": "950740237", "code": 2724, "fclass": "memorial", "name": "Jacob Bleich" }, "geometry": { "type": "Point", "coordinates": [ 10.0325294, 53.5618963 ] } },
{ "type": "Feature", "properties": { "osm_id": "950740275", "code": 2724, "fclass": "memorial", "name": "Markus Bleich" }, "geometry": { "type": "Point", "coordinates": [ 10.0325328, 53.5618991 ] } },
{ "type": "Feature", "properties": { "osm_id": "950776892", "code": 2724, "fclass": "memorial", "name": "Martin Garbarz" }, "geometry": { "type": "Point", "coordinates": [ 10.0134086, 53.5547659 ] } },
{ "type": "Feature", "properties": { "osm_id": "959175118", "code": 2512, "fclass": "clothes", "name": "Hackbarth's" }, "geometry": { "type": "Point", "coordinates": [ 10.0137495, 53.5589185 ] } },
{ "type": "Feature", "properties": { "osm_id": "959175119", "code": 2512, "fclass": "clothes", "name": "Marvin Nonis Modedesign" }, "geometry": { "type": "Point", "coordinates": [ 10.0099289, 53.556269 ] } },
{ "type": "Feature", "properties": { "osm_id": "966478319", "code": 2016, "fclass": "market_place", "name": "Wochenmarkt St. Georg" }, "geometry": { "type": "Point", "coordinates": [ 10.010496, 53.5565202 ] } },
{ "type": "Feature", "properties": { "osm_id": "973501631", "code": 2515, "fclass": "bookshop", "name": "Dr. Robert Wohlers" }, "geometry": { "type": "Point", "coordinates": [ 10.0100855, 53.5564213 ] } },
{ "type": "Feature", "properties": { "osm_id": "973501650", "code": 2512, "fclass": "clothes", "name": "plateau!" }, "geometry": { "type": "Point", "coordinates": [ 10.0110441, 53.5570405 ] } },
{ "type": "Feature", "properties": { "osm_id": "973501659", "code": 2301, "fclass": "restaurant", "name": "Central" }, "geometry": { "type": "Point", "coordinates": [ 10.0109792, 53.5569952 ] } },
{ "type": "Feature", "properties": { "osm_id": "975780519", "code": 2401, "fclass": "hotel", "name": "Boutique 020 Hamburg City" }, "geometry": { "type": "Point", "coordinates": [ 10.0097889, 53.5542365 ] } },
{ "type": "Feature", "properties": { "osm_id": "975907870", "code": 2304, "fclass": "pub", "name": "Ilohh, Bar am Ende der Welt" }, "geometry": { "type": "Point", "coordinates": [ 10.0131459, 53.548592 ] } },
{ "type": "Feature", "properties": { "osm_id": "975918081", "code": 2301, "fclass": "restaurant", "name": "Bei Hadjia, Afrikanisches Restaurant" }, "geometry": { "type": "Point", "coordinates": [ 10.0134725, 53.5486084 ] } },
{ "type": "Feature", "properties": { "osm_id": "977807190", "code": 2303, "fclass": "cafe", "name": "Kervan Simit" }, "geometry": { "type": "Point", "coordinates": [ 10.02319, 53.5531229 ] } },
{ "type": "Feature", "properties": { "osm_id": "978689712", "code": 2902, "fclass": "bench", "name": null }, "geometry": { "type": "Point", "coordinates": [ 10.023373, 53.5546644 ] } },
{ "type": "Feature", "properties": { "osm_id": "978689737", "code": 2502, "fclass": "bakery", "name": "Brot&Brötchen Café" }, "geometry": { "type": "Point", "coordinates": [ 10.0222781, 53.5529638 ] } },
{ "type": "Feature", "properties": { "osm_id": "978689743", "code": 2902, "fclass": "bench", "name": null }, "geometry": { "type": "Point", "coordinates": [ 10.0235755, 53.5544128 ] } },
{ "type": "Feature", "properties": { "osm_id": "978689769", "code": 2902, "fclass": "bench", "name": null }, "geometry": { "type": "Point", "coordinates": [ 10.0235554, 53.554437 ] } },
{ "type": "Feature", "properties": { "osm_id": "979088995", "code": 2501, "fclass": "supermarket", "name": "ASIA24" }, "geometry": { "type": "Point", "coordinates": [ 10.022702, 53.553039 ] } },
{ "type": "Feature", "properties": { "osm_id": "981993904", "code": 2525, "fclass": "mobile_phone_shop", "name": "mymobile repair" }, "geometry": { "type": "Point", "coordinates": [ 10.0116144, 53.5573931 ] } },
{ "type": "Feature", "properties": { "osm_id": "983585381", "code": 2302, "fclass": "fast_food", "name": "Soulkebab" }, "geometry": { "type": "Point", "coordinates": [ 10.0120247, 53.5520575 ] } },
{ "type": "Feature", "properties": { "osm_id": "983585382", "code": 2901, "fclass": "toilet", "name": null }, "geometry": { "type": "Point", "coordinates": [ 10.0115822, 53.5521181 ] } },
{ "type": "Feature", "properties": { "osm_id": "986906947", "code": 2302, "fclass": "fast_food", "name": "Asia-Imbiss" }, "geometry": { "type": "Point", "coordinates": [ 10.0244321, 53.5462063 ] } },
{ "type": "Feature", "properties": { "osm_id": "988336603", "code": 2302, "fclass": "fast_food", "name": "Marien Shop" }, "geometry": { "type": "Point", "coordinates": [ 10.0302448, 53.5605701 ] } },
{ "type": "Feature", "properties": { "osm_id": "988336605", "code": 2302, "fclass": "fast_food", "name": "Buddha" }, "geometry": { "type": "Point", "coordinates": [ 10.0312688, 53.5615335 ] } },
{ "type": "Feature", "properties": { "osm_id": "990207484", "code": 2302, "fclass": "fast_food", "name": "El Greco" }, "geometry": { "type": "Point", "coordinates": [ 10.0243789, 53.5462761 ] } },
{ "type": "Feature", "properties": { "osm_id": "1016743138", "code": 2401, "fclass": "hotel", "name": "Hotel Novum Hamburg" }, "geometry": { "type": "Point", "coordinates": [ 10.0126386, 53.5540721 ] } },
{ "type": "Feature", "properties": { "osm_id": "1037650150", "code": 2401, "fclass": "hotel", "name": "Bee Fang" }, "geometry": { "type": "Point", "coordinates": [ 10.0074425, 53.5557105 ] } },
{ "type": "Feature", "properties": { "osm_id": "1123329602", "code": 2082, "fclass": "school", "name": "IBB" }, "geometry": { "type": "Point", "coordinates": [ 10.0227661, 53.5486331 ] } },
{ "type": "Feature", "properties": { "osm_id": "1129415815", "code": 2593, "fclass": "vending_any", "name": null }, "geometry": { "type": "Point", "coordinates": [ 10.007277, 53.5536529 ] } },
{ "type": "Feature", "properties": { "osm_id": "1130748919", "code": 2301, "fclass": "restaurant", "name": "Aquarius" }, "geometry": { "type": "Point", "coordinates": [ 10.0151823, 53.5487665 ] } },
{ "type": "Feature", "properties": { "osm_id": "1130748962", "code": 2301, "fclass": "restaurant", "name": "New Spalding Restaurant" }, "geometry": { "type": "Point", "coordinates": [ 10.0196072, 53.5499926 ] } },
{ "type": "Feature", "properties": { "osm_id": "1158060550", "code": 2502, "fclass": "bakery", "name": "Nur Hier" }, "geometry": { "type": "Point", "coordinates": [ 10.0205484, 53.5527158 ] } },
{ "type": "Feature", "properties": { "osm_id": "1158060567", "code": 2304, "fclass": "pub", "name": "Treff bei Tassos" }, "geometry": { "type": "Point", "coordinates": [ 10.0213605, 53.5528349 ] } },
{ "type": "Feature", "properties": { "osm_id": "1169719784", "code": 2511, "fclass": "convenience", "name": "Feinkost Läufer" }, "geometry": { "type": "Point", "coordinates": [ 10.0143264, 53.5601152 ] } },
{ "type": "Feature", "properties": { "osm_id": "1216567684", "code": 2724, "fclass": "memorial", "name": "Heinz Kroll" }, "geometry": { "type": "Point", "coordinates": [ 10.0317076, 53.5533667 ] } },
{ "type": "Feature", "properties": { "osm_id": "1216567704", "code": 2724, "fclass": "memorial", "name": "Hulda Blumenthal geb. Samuelsohn" }, "geometry": { "type": "Point", "coordinates": [ 10.027546, 53.5556747 ] } },
{ "type": "Feature", "properties": { "osm_id": "1216567708", "code": 2724, "fclass": "memorial", "name": "Max Elias" }, "geometry": { "type": "Point", "coordinates": [ 10.030808, 53.5514753 ] } },
{ "type": "Feature", "properties": { "osm_id": "1216567742", "code": 2724, "fclass": "memorial", "name": "Rosa Priebatsch geb. Kassel" }, "geometry": { "type": "Point", "coordinates": [ 10.0321835, 53.5554383 ] } },
{ "type": "Feature", "properties": { "osm_id": "1216567764", "code": 2724, "fclass": "memorial", "name": "Rudolfine Zweig geb. Kreslawski" }, "geometry": { "type": "Point", "coordinates": [ 10.032183, 53.5554381 ] } },
{ "type": "Feature", "properties": { "osm_id": "1216567773", "code": 2724, "fclass": "memorial", "name": "Wilhelm Tiedemann" }, "geometry": { "type": "Point", "coordinates": [ 10.0322352, 53.5511156 ] } },
{ "type": "Feature", "properties": { "osm_id": "1216567784", "code": 2724, "fclass": "memorial", "name": "Johanna Steiner" }, "geometry": { "type": "Point", "coordinates": [ 10.0317652, 53.5534615 ] } },
{ "type": "Feature", "properties": { "osm_id": "1216567790", "code": 2724, "fclass": "memorial", "name": "Siegismund Zweig" }, "geometry": { "type": "Point", "coordinates": [ 10.0321833, 53.5554382 ] } },
{ "type": "Feature", "properties": { "osm_id": "1219356651", "code": 2724, "fclass": "memorial", "name": "Hermann Hirsch Stein" }, "geometry": { "type": "Point", "coordinates": [ 10.0350025, 53.556851 ] } },
{ "type": "Feature", "properties": { "osm_id": "1219356657", "code": 2724, "fclass": "memorial", "name": "Walter Grieshaber" }, "geometry": { "type": "Point", "coordinates": [ 10.0350294, 53.5592332 ] } },
{ "type": "Feature", "properties": { "osm_id": "1219356673", "code": 2724, "fclass": "memorial", "name": "Esther Münster" }, "geometry": { "type": "Point", "coordinates": [ 10.0349983, 53.5568503 ] } },
{ "type": "Feature", "properties": { "osm_id": "1219356697", "code": 2724, "fclass": "memorial", "name": "Erna Martinelly geb. Gottschalk" }, "geometry": { "type": "Point", "coordinates": [ 10.0349473, 53.5581811 ] } },
{ "type": "Feature", "properties": { "osm_id": "1219356699", "code": 2724, "fclass": "memorial", "name": "Sali Münster geb. Stein" }, "geometry": { "type": "Point", "coordinates": [ 10.0350067, 53.5568517 ] } },
{ "type": "Feature", "properties": { "osm_id": "1237179953", "code": 2512, "fclass": "clothes", "name": "Classico" }, "geometry": { "type": "Point", "coordinates": [ 10.0139451, 53.5589917 ] } },
{ "type": "Feature", "properties": { "osm_id": "1248294134", "code": 2724, "fclass": "memorial", "name": "Friedrich Löser" }, "geometry": { "type": "Point", "coordinates": [ 10.0193891, 53.5474642 ] } },
{ "type": "Feature", "properties": { "osm_id": "1248655159", "code": 2724, "fclass": "memorial", "name": "Auguste Schröder" }, "geometry": { "type": "Point", "coordinates": [ 10.0281714, 53.5523204 ] } },
{ "type": "Feature", "properties": { "osm_id": "1290030292", "code": 2602, "fclass": "atm", "name": null }, "geometry": { "type": "Point", "coordinates": [ 10.0318745, 53.5520551 ] } },
{ "type": "Feature", "properties": { "osm_id": "1297182795", "code": 2007, "fclass": "library", "name": "Zentralbibliothek" }, "geometry": { "type": "Point", "coordinates": [ 10.0080194, 53.5496446 ] } },
{ "type": "Feature", "properties": { "osm_id": "1298871467", "code": 2592, "fclass": "vending_parking", "name": null }, "geometry": { "type": "Point", "coordinates": [ 10.0076835, 53.5497771 ] } },
{ "type": "Feature", "properties": { "osm_id": "1352772467", "code": 2566, "fclass": "bicycle_rental", "name": "Alsterschwimmhalle / Ifflandstraße" }, "geometry": { "type": "Point", "coordinates": [ 10.0222053, 53.5615358 ] } },
{ "type": "Feature", "properties": { "osm_id": "1362122152", "code": 2515, "fclass": "bookshop", "name": "Brunos" }, "geometry": { "type": "Point", "coordinates": [ 10.0121878, 53.5577774 ] } },
{ "type": "Feature", "properties": { "osm_id": "1377358995", "code": 2701, "fclass": "tourist_info", "name": null }, "geometry": { "type": "Point", "coordinates": [ 10.0081222, 53.5552138 ] } },
{ "type": "Feature", "properties": { "osm_id": "1377891093", "code": 2561, "fclass": "hairdresser", "name": "Pony & Clyde" }, "geometry": { "type": "Point", "coordinates": [ 10.0217984, 53.5528971 ] } },
{ "type": "Feature", "properties": { "osm_id": "1384209628", "code": 2301, "fclass": "restaurant", "name": "le-su" }, "geometry": { "type": "Point", "coordinates": [ 10.0129005, 53.5588675 ] } },
{ "type": "Feature", "properties": { "osm_id": "1390601773", "code": 2302, "fclass": "fast_food", "name": "Daily You" }, "geometry": { "type": "Point", "coordinates": [ 10.0287823, 53.548153 ] } },
{ "type": "Feature", "properties": { "osm_id": "1396465474", "code": 2902, "fclass": "bench", "name": null }, "geometry": { "type": "Point", "coordinates": [ 10.0191832, 53.5513226 ] } },
{ "type": "Feature", "properties": { "osm_id": "1396465477", "code": 2902, "fclass": "bench", "name": null }, "geometry": { "type": "Point", "coordinates": [ 10.0192977, 53.5513532 ] } },
{ "type": "Feature", "properties": { "osm_id": "1396465479", "code": 2902, "fclass": "bench", "name": null }, "geometry": { "type": "Point", "coordinates": [ 10.0194083, 53.5513832 ] } },
{ "type": "Feature", "properties": { "osm_id": "1396465484", "code": 2902, "fclass": "bench", "name": null }, "geometry": { "type": "Point", "coordinates": [ 10.0195618, 53.5514246 ] } },
{ "type": "Feature", "properties": { "osm_id": "1396465485", "code": 2902, "fclass": "bench", "name": null }, "geometry": { "type": "Point", "coordinates": [ 10.0195841, 53.5514308 ] } },
{ "type": "Feature", "properties": { "osm_id": "1396465504", "code": 2902, "fclass": "bench", "name": null }, "geometry": { "type": "Point", "coordinates": [ 10.0191723, 53.5515753 ] } },
{ "type": "Feature", "properties": { "osm_id": "1396465516", "code": 2902, "fclass": "bench", "name": null }, "geometry": { "type": "Point", "coordinates": [ 10.0191984, 53.551582 ] } },
{ "type": "Feature", "properties": { "osm_id": "1396465518", "code": 2902, "fclass": "bench", "name": null }, "geometry": { "type": "Point", "coordinates": [ 10.0192251, 53.5515889 ] } },
{ "type": "Feature", "properties": { "osm_id": "1411408403", "code": 2303, "fclass": "cafe", "name": "Café Uhrlaub" }, "geometry": { "type": "Point", "coordinates": [ 10.0115021, 53.5577818 ] } },
{ "type": "Feature", "properties": { "osm_id": "1417019959", "code": 2005, "fclass": "post_office", "name": null }, "geometry": { "type": "Point", "coordinates": [ 10.0308012, 53.5613534 ] } },
{ "type": "Feature", "properties": { "osm_id": "1417019960", "code": 2004, "fclass": "post_box", "name": null }, "geometry": { "type": "Point", "coordinates": [ 10.0309605, 53.5613126 ] } },
{ "type": "Feature", "properties": { "osm_id": "1423782341", "code": 2724, "fclass": "memorial", "name": "Jenny Heinemann geb. Berna" }, "geometry": { "type": "Point", "coordinates": [ 10.0186536, 53.5614793 ] } },
{ "type": "Feature", "properties": { "osm_id": "1423784660", "code": 2724, "fclass": "memorial", "name": "Heidi Kabel" }, "geometry": { "type": "Point", "coordinates": [ 10.0071345, 53.5544475 ] } },
{ "type": "Feature", "properties": { "osm_id": "1446948241", "code": 2502, "fclass": "bakery", "name": "Rettungsbrot" }, "geometry": { "type": "Point", "coordinates": [ 10.0307297, 53.5551642 ] } },
{ "type": "Feature", "properties": { "osm_id": "1446965715", "code": 2301, "fclass": "restaurant", "name": "Hacker-Pschorr" }, "geometry": { "type": "Point", "coordinates": [ 10.012957, 53.5589249 ] } },
{ "type": "Feature", "properties": { "osm_id": "1471743034", "code": 2512, "fclass": "clothes", "name": "The Art of Hamburg" }, "geometry": { "type": "Point", "coordinates": [ 10.0109349, 53.5569599 ] } },
{ "type": "Feature", "properties": { "osm_id": "1481219083", "code": 2724, "fclass": "memorial", "name": "Haskel (Adolf) Lubelsky" }, "geometry": { "type": "Point", "coordinates": [ 10.0230134, 53.559534 ] } },
{ "type": "Feature", "properties": { "osm_id": "1481219088", "code": 2724, "fclass": "memorial", "name": "Hermann Kohn" }, "geometry": { "type": "Point", "coordinates": [ 10.0230204, 53.559543 ] } },
{ "type": "Feature", "properties": { "osm_id": "1481219092", "code": 2724, "fclass": "memorial", "name": "Sidonie Kohn geb. Stransky" }, "geometry": { "type": "Point", "coordinates": [ 10.0230251, 53.5595369 ] } },
{ "type": "Feature", "properties": { "osm_id": "1490425169", "code": 2902, "fclass": "bench", "name": null }, "geometry": { "type": "Point", "coordinates": [ 10.010492, 53.560306 ] } },
{ "type": "Feature", "properties": { "osm_id": "1490425171", "code": 2902, "fclass": "bench", "name": null }, "geometry": { "type": "Point", "coordinates": [ 10.0106518, 53.5603619 ] } },
{ "type": "Feature", "properties": { "osm_id": "1490425188", "code": 2902, "fclass": "bench", "name": null }, "geometry": { "type": "Point", "coordinates": [ 10.0107624, 53.5604283 ] } },
{ "type": "Feature", "properties": { "osm_id": "1490425191", "code": 2902, "fclass": "bench", "name": null }, "geometry": { "type": "Point", "coordinates": [ 10.0113998, 53.560612 ] } },
{ "type": "Feature", "properties": { "osm_id": "1490425194", "code": 2902, "fclass": "bench", "name": null }, "geometry": { "type": "Point", "coordinates": [ 10.0108332, 53.5604951 ] } },
{ "type": "Feature", "properties": { "osm_id": "1490425197", "code": 2902, "fclass": "bench", "name": null }, "geometry": { "type": "Point", "coordinates": [ 10.0114978, 53.5605358 ] } },
{ "type": "Feature", "properties": { "osm_id": "1490425207", "code": 2902, "fclass": "bench", "name": null }, "geometry": { "type": "Point", "coordinates": [ 10.0111871, 53.5606665 ] } },
{ "type": "Feature", "properties": { "osm_id": "1490425209", "code": 2902, "fclass": "bench", "name": null }, "geometry": { "type": "Point", "coordinates": [ 10.0108687, 53.5605461 ] } },
{ "type": "Feature", "properties": { "osm_id": "1495614709", "code": 2724, "fclass": "memorial", "name": "Siegmund Jacobsohn" }, "geometry": { "type": "Point", "coordinates": [ 10.0128663, 53.5586434 ] } },
{ "type": "Feature", "properties": { "osm_id": "1497180757", "code": 2724, "fclass": "memorial", "name": "Gertrud Jachinski" }, "geometry": { "type": "Point", "coordinates": [ 10.0089718, 53.5568381 ] } },
{ "type": "Feature", "properties": { "osm_id": "1497798910", "code": 2566, "fclass": "bicycle_rental", "name": "Eiffestraße / Normannenweg" }, "geometry": { "type": "Point", "coordinates": [ 10.030488, 53.5520591 ] } },
{ "type": "Feature", "properties": { "osm_id": "1498437961", "code": 2724, "fclass": "memorial", "name": "Hermann Winkelmann" }, "geometry": { "type": "Point", "coordinates": [ 10.0208653, 53.5542905 ] } },
{ "type": "Feature", "properties": { "osm_id": "1498442640", "code": 2724, "fclass": "memorial", "name": "Karl Müller" }, "geometry": { "type": "Point", "coordinates": [ 10.0158149, 53.5572128 ] } },
{ "type": "Feature", "properties": { "osm_id": "1498446705", "code": 2724, "fclass": "memorial", "name": "Heinrich Harf" }, "geometry": { "type": "Point", "coordinates": [ 10.0148491, 53.5559089 ] } },
{ "type": "Feature", "properties": { "osm_id": "1498447463", "code": 2724, "fclass": "memorial", "name": "Anna Keldorf" }, "geometry": { "type": "Point", "coordinates": [ 10.011723, 53.5541226 ] } },
{ "type": "Feature", "properties": { "osm_id": "1498453774", "code": 2724, "fclass": "memorial", "name": "Hans-Peter Nielsen" }, "geometry": { "type": "Point", "coordinates": [ 10.0117674, 53.5534563 ] } },
{ "type": "Feature", "properties": { "osm_id": "1498453775", "code": 2724, "fclass": "memorial", "name": "Harry Gottschalk" }, "geometry": { "type": "Point", "coordinates": [ 10.0114299, 53.5530994 ] } },
{ "type": "Feature", "properties": { "osm_id": "1498453777", "code": 2724, "fclass": "memorial", "name": "Manfred Jacobsohn" }, "geometry": { "type": "Point", "coordinates": [ 10.0114231, 53.5530966 ] } },
{ "type": "Feature", "properties": { "osm_id": "1498456248", "code": 2724, "fclass": "memorial", "name": "Dr. Max Grösser" }, "geometry": { "type": "Point", "coordinates": [ 10.0160068, 53.5528069 ] } },
{ "type": "Feature", "properties": { "osm_id": "1498471102", "code": 2083, "fclass": "kindergarten", "name": "Die Stifte" }, "geometry": { "type": "Point", "coordinates": [ 10.0206459, 53.5547134 ] } },
{ "type": "Feature", "properties": { "osm_id": "1507416224", "code": 2724, "fclass": "memorial", "name": "Otto Aron" }, "geometry": { "type": "Point", "coordinates": [ 10.015004, 53.5577018 ] } },
{ "type": "Feature", "properties": { "osm_id": "1507416225", "code": 2724, "fclass": "memorial", "name": "Peter Kolodziejcyk" }, "geometry": { "type": "Point", "coordinates": [ 10.0097957, 53.5557179 ] } },
{ "type": "Feature", "properties": { "osm_id": "1508604273", "code": 2301, "fclass": "restaurant", "name": "Chinarestaurant Mei Moon" }, "geometry": { "type": "Point", "coordinates": [ 10.0091867, 53.5535128 ] } },
{ "type": "Feature", "properties": { "osm_id": "1508604401", "code": 2593, "fclass": "vending_any", "name": null }, "geometry": { "type": "Point", "coordinates": [ 10.0072443, 53.5536549 ] } },
{ "type": "Feature", "properties": { "osm_id": "1508604420", "code": 2301, "fclass": "restaurant", "name": "Ristorante Capri" }, "geometry": { "type": "Point", "coordinates": [ 10.008894, 53.5531704 ] } },
{ "type": "Feature", "properties": { "osm_id": "1515250478", "code": 2724, "fclass": "memorial", "name": "Anna Casper geb. Sittenfeld" }, "geometry": { "type": "Point", "coordinates": [ 10.0146625, 53.5618923 ] } },
{ "type": "Feature", "properties": { "osm_id": "1515250489", "code": 2724, "fclass": "memorial", "name": "Irene Casper" }, "geometry": { "type": "Point", "coordinates": [ 10.0146553, 53.5618823 ] } },
{ "type": "Feature", "properties": { "osm_id": "1516403959", "code": 2724, "fclass": "memorial", "name": "Louis Levin" }, "geometry": { "type": "Point", "coordinates": [ 10.0223028, 53.562051 ] } },
{ "type": "Feature", "properties": { "osm_id": "1516403968", "code": 2724, "fclass": "memorial", "name": "Helene Weissfeiler geb. Schaingold" }, "geometry": { "type": "Point", "coordinates": [ 10.0246362, 53.562867 ] } },
{ "type": "Feature", "properties": { "osm_id": "1516403977", "code": 2724, "fclass": "memorial", "name": "Erwin Weissfeiler" }, "geometry": { "type": "Point", "coordinates": [ 10.0246422, 53.562867 ] } },
{ "type": "Feature", "properties": { "osm_id": "1516428724", "code": 2724, "fclass": "memorial", "name": "Erna Müller" }, "geometry": { "type": "Point", "coordinates": [ 10.0170634, 53.5566001 ] } },
{ "type": "Feature", "properties": { "osm_id": "1516428731", "code": 2724, "fclass": "memorial", "name": "Feigel Thon geb. Teichner" }, "geometry": { "type": "Point", "coordinates": [ 10.0252867, 53.5617769 ] } },
{ "type": "Feature", "properties": { "osm_id": "1554494080", "code": 2502, "fclass": "bakery", "name": "Hansebäckerei Junge" }, "geometry": { "type": "Point", "coordinates": [ 10.0078021, 53.5545894 ] } },
{ "type": "Feature", "properties": { "osm_id": "1561538987", "code": 2301, "fclass": "restaurant", "name": "Bottega Italia Restaurant" }, "geometry": { "type": "Point", "coordinates": [ 10.0104417, 53.5569964 ] } },
{ "type": "Feature", "properties": { "osm_id": "1561538988", "code": 2303, "fclass": "cafe", "name": "Caravela St. Georg" }, "geometry": { "type": "Point", "coordinates": [ 10.0091698, 53.5560647 ] } },
{ "type": "Feature", "properties": { "osm_id": "1561538990", "code": 2542, "fclass": "bicycle_shop", "name": "Fahradladen St. Georg" }, "geometry": { "type": "Point", "coordinates": [ 10.0113843, 53.5595026 ] } },
{ "type": "Feature", "properties": { "osm_id": "1561538991", "code": 2301, "fclass": "restaurant", "name": "San" }, "geometry": { "type": "Point", "coordinates": [ 10.0116047, 53.558786 ] } },
{ "type": "Feature", "properties": { "osm_id": "1561538993", "code": 2503, "fclass": "kiosk", "name": "M. Niemeyer Cigarren" }, "geometry": { "type": "Point", "coordinates": [ 10.0137071, 53.55884 ] } },
{ "type": "Feature", "properties": { "osm_id": "1561538994", "code": 2303, "fclass": "cafe", "name": "Park Haus St. Georg" }, "geometry": { "type": "Point", "coordinates": [ 10.015471, 53.5591421 ] } },
{ "type": "Feature", "properties": { "osm_id": "1561539008", "code": 2004, "fclass": "post_box", "name": null }, "geometry": { "type": "Point", "coordinates": [ 10.010159, 53.5564275 ] } },
{ "type": "Feature", "properties": { "osm_id": "1561539017", "code": 2004, "fclass": "post_box", "name": null }, "geometry": { "type": "Point", "coordinates": [ 10.0135552, 53.5567859 ] } },
{ "type": "Feature", "properties": { "osm_id": "1561539035", "code": 2006, "fclass": "telephone", "name": null }, "geometry": { "type": "Point", "coordinates": [ 10.013612, 53.5589665 ] } },
{ "type": "Feature", "properties": { "osm_id": "1561539049", "code": 2004, "fclass": "post_box", "name": null }, "geometry": { "type": "Point", "coordinates": [ 10.013737, 53.5608287 ] } },
{ "type": "Feature", "properties": { "osm_id": "1561539056", "code": 2725, "fclass": "artwork", "name": "Schiffsbleche" }, "geometry": { "type": "Point", "coordinates": [ 10.0076475, 53.5560196 ] } },
{ "type": "Feature", "properties": { "osm_id": "1561539057", "code": 2303, "fclass": "cafe", "name": "Bistro Kleinod" }, "geometry": { "type": "Point", "coordinates": [ 10.012467, 53.5593239 ] } },
{ "type": "Feature", "properties": { "osm_id": "1561539058", "code": 2301, "fclass": "restaurant", "name": "The King Of India" }, "geometry": { "type": "Point", "coordinates": [ 10.0073822, 53.5560699 ] } },
{ "type": "Feature", "properties": { "osm_id": "1563913596", "code": 2501, "fclass": "supermarket", "name": "Rewe" }, "geometry": { "type": "Point", "coordinates": [ 10.0313413, 53.5621792 ] } },
{ "type": "Feature", "properties": { "osm_id": "1564055745", "code": 2722, "fclass": "museum", "name": "Kunsthaus Hamburg" }, "geometry": { "type": "Point", "coordinates": [ 10.0066187, 53.5488475 ] } },
{ "type": "Feature", "properties": { "osm_id": "1571347848", "code": 2303, "fclass": "cafe", "name": "Café Münzburg" }, "geometry": { "type": "Point", "coordinates": [ 10.0129585, 53.5493294 ] } },
{ "type": "Feature", "properties": { "osm_id": "1571347879", "code": 2301, "fclass": "restaurant", "name": "XIV Heilige" }, "geometry": { "type": "Point", "coordinates": [ 10.0128463, 53.554705 ] } },
{ "type": "Feature", "properties": { "osm_id": "1571347935", "code": 2503, "fclass": "kiosk", "name": "Aras Kiosk" }, "geometry": { "type": "Point", "coordinates": [ 10.0136536, 53.5486278 ] } },
{ "type": "Feature", "properties": { "osm_id": "1571347946", "code": 2501, "fclass": "supermarket", "name": "Lidl" }, "geometry": { "type": "Point", "coordinates": [ 10.0170875, 53.5552291 ] } },
{ "type": "Feature", "properties": { "osm_id": "1571347963", "code": 2302, "fclass": "fast_food", "name": "McDonald's" }, "geometry": { "type": "Point", "coordinates": [ 10.0111017, 53.5520306 ] } },
{ "type": "Feature", "properties": { "osm_id": "1571348283", "code": 2592, "fclass": "vending_parking", "name": null }, "geometry": { "type": "Point", "coordinates": [ 10.0130792, 53.5536558 ] } },
{ "type": "Feature", "properties": { "osm_id": "1571348539", "code": 2303, "fclass": "cafe", "name": "Café Curiousa" }, "geometry": { "type": "Point", "coordinates": [ 10.0126222, 53.5549298 ] } },
{ "type": "Feature", "properties": { "osm_id": "1571348547", "code": 2907, "fclass": "camera_surveillance", "name": null }, "geometry": { "type": "Point", "coordinates": [ 10.0257099, 53.5588168 ] } },
{ "type": "Feature", "properties": { "osm_id": "1571348551", "code": 2907, "fclass": "camera_surveillance", "name": null }, "geometry": { "type": "Point", "coordinates": [ 10.0260438, 53.5589182 ] } },
{ "type": "Feature", "properties": { "osm_id": "1571348553", "code": 2501, "fclass": "supermarket", "name": "Kaufland Hamburg-St. Georg" }, "geometry": { "type": "Point", "coordinates": [ 10.0205863, 53.5524952 ] } },
{ "type": "Feature", "properties": { "osm_id": "1590595696", "code": 2724, "fclass": "memorial", "name": "Helmuth Hübener" }, "geometry": { "type": "Point", "coordinates": [ 10.0113423, 53.5557733 ] } },
{ "type": "Feature", "properties": { "osm_id": "1615477045", "code": 2305, "fclass": "bar", "name": "Toms Saloon" }, "geometry": { "type": "Point", "coordinates": [ 10.0147065, 53.5535387 ] } },
{ "type": "Feature", "properties": { "osm_id": "1623988820", "code": 2301, "fclass": "restaurant", "name": "Grand Golssar" }, "geometry": { "type": "Point", "coordinates": [ 10.0216024, 53.5569465 ] } },
{ "type": "Feature", "properties": { "osm_id": "1623989349", "code": 2303, "fclass": "cafe", "name": "Oh It's Fresh" }, "geometry": { "type": "Point", "coordinates": [ 10.0216292, 53.5572065 ] } },
{ "type": "Feature", "properties": { "osm_id": "1629767490", "code": 2724, "fclass": "memorial", "name": "Heinrich-Christian-Meyer-Denkmal" }, "geometry": { "type": "Point", "coordinates": [ 10.0213696, 53.5465357 ] } },
{ "type": "Feature", "properties": { "osm_id": "1636614093", "code": 2722, "fclass": "museum", "name": "Freie Akademie der Künste" }, "geometry": { "type": "Point", "coordinates": [ 10.0067109, 53.5485293 ] } },
{ "type": "Feature", "properties": { "osm_id": "1640543937", "code": 2601, "fclass": "bank", "name": "Hamburger Volksbank Hammerbrook" }, "geometry": { "type": "Point", "coordinates": [ 10.0232054, 53.5479415 ] } },
{ "type": "Feature", "properties": { "osm_id": "1640544012", "code": 2004, "fclass": "post_box", "name": null }, "geometry": { "type": "Point", "coordinates": [ 10.0231571, 53.5478077 ] } },
{ "type": "Feature", "properties": { "osm_id": "1640544088", "code": 2004, "fclass": "post_box", "name": null }, "geometry": { "type": "Point", "coordinates": [ 10.0135786, 53.5485579 ] } },
{ "type": "Feature", "properties": { "osm_id": "1655891790", "code": 2004, "fclass": "post_box", "name": null }, "geometry": { "type": "Point", "coordinates": [ 10.0079337, 53.5523471 ] } },
{ "type": "Feature", "properties": { "osm_id": "1655891811", "code": 2004, "fclass": "post_box", "name": null }, "geometry": { "type": "Point", "coordinates": [ 10.0216594, 53.5528981 ] } },
{ "type": "Feature", "properties": { "osm_id": "1655891815", "code": 2004, "fclass": "post_box", "name": null }, "geometry": { "type": "Point", "coordinates": [ 10.0242108, 53.5531845 ] } },
{ "type": "Feature", "properties": { "osm_id": "1662347031", "code": 2724, "fclass": "memorial", "name": "Ina Löwenthal geb. Ascher" }, "geometry": { "type": "Point", "coordinates": [ 10.0230085, 53.5595396 ] } },
{ "type": "Feature", "properties": { "osm_id": "1662349594", "code": 2724, "fclass": "memorial", "name": "Max Ring" }, "geometry": { "type": "Point", "coordinates": [ 10.0223811, 53.561022 ] } },
{ "type": "Feature", "properties": { "osm_id": "1664272426", "code": 2724, "fclass": "memorial", "name": "Bruno Rosenbaum" }, "geometry": { "type": "Point", "coordinates": [ 10.0255472, 53.5607593 ] } },
{ "type": "Feature", "properties": { "osm_id": "1678878353", "code": 2724, "fclass": "memorial", "name": "Franz Grünfeld" }, "geometry": { "type": "Point", "coordinates": [ 10.0140851, 53.55974 ] } },
{ "type": "Feature", "properties": { "osm_id": "1678878370", "code": 2724, "fclass": "memorial", "name": "Herbert Pinkus" }, "geometry": { "type": "Point", "coordinates": [ 10.0140798, 53.5597433 ] } },
{ "type": "Feature", "properties": { "osm_id": "1678886278", "code": 2724, "fclass": "memorial", "name": "Friedrich Martin Stoltenberg" }, "geometry": { "type": "Point", "coordinates": [ 10.0115306, 53.5533403 ] } },
{ "type": "Feature", "properties": { "osm_id": "1685023473", "code": 2724, "fclass": "memorial", "name": "Emma Böhme" }, "geometry": { "type": "Point", "coordinates": [ 10.0193942, 53.5474582 ] } },
{ "type": "Feature", "properties": { "osm_id": "1709289449", "code": 2301, "fclass": "restaurant", "name": "Lades" }, "geometry": { "type": "Point", "coordinates": [ 10.015315, 53.5546463 ] } },
{ "type": "Feature", "properties": { "osm_id": "1737164797", "code": 2593, "fclass": "vending_any", "name": null }, "geometry": { "type": "Point", "coordinates": [ 10.0077992, 53.5495385 ] } },
{ "type": "Feature", "properties": { "osm_id": "1746755393", "code": 2724, "fclass": "memorial", "name": "Acht ermordete Patienten" }, "geometry": { "type": "Point", "coordinates": [ 10.0184253, 53.5588225 ] } },
{ "type": "Feature", "properties": { "osm_id": "1757118096", "code": 2031, "fclass": "recycling_glass", "name": null }, "geometry": { "type": "Point", "coordinates": [ 10.0137087, 53.548001 ] } },
{ "type": "Feature", "properties": { "osm_id": "1757758906", "code": 2401, "fclass": "hotel", "name": "Kieler Hof" }, "geometry": { "type": "Point", "coordinates": [ 10.0100833, 53.5538692 ] } },
{ "type": "Feature", "properties": { "osm_id": "1757759034", "code": 2301, "fclass": "restaurant", "name": "Trattoria" }, "geometry": { "type": "Point", "coordinates": [ 10.0125132, 53.5550372 ] } },
{ "type": "Feature", "properties": { "osm_id": "1762162391", "code": 2561, "fclass": "hairdresser", "name": "fon friseur" }, "geometry": { "type": "Point", "coordinates": [ 10.0096386, 53.555943 ] } },
{ "type": "Feature", "properties": { "osm_id": "1763177782", "code": 2014, "fclass": "arts_centre", "name": "Geschichtswerkstatt St. Georg" },